{
		"type": "FeatureCollection",
		"crs": { "type": "name", "properties": { "name": "urn:ogc:def:crs:OGC:1.3:CRS84" } },                                                                  
		"features": [
	{ "type": "Feature", "properties": {"name":"Abercynon","postcode":"CF45 4YX","URL":"http://motorwayservices.uk/Abercynon"}, "geometry": { "type": "Point", "coordinates": [-3.321808, 51.645552]} },
{ "type": "Feature", "properties": {"name":"Abington","postcode":"ML12 6RG","URL":"http://motorwayservices.uk/Abington"}, "geometry": { "type": "Point", "coordinates": [-3.695989, 55.507502]} },
{ "type": "Feature", "properties": {"name":"Acle","postcode":"NR13 3BE","URL":"http://motorwayservices.uk/Acle"}, "geometry": { "type": "Point", "coordinates": [1.55067, 52.638237]} },
{ "type": "Feature", "properties": {"name":"Acre_Hill","postcode":"OX29 4EN","URL":"http://motorwayservices.uk/Acre_Hill"}, "geometry": { "type": "Point", "coordinates": [-1.366947, 51.788056]} },
{ "type": "Feature", "properties": {"name":"Adderstone","postcode":"NE70 7JU","URL":"http://motorwayservices.uk/Adderstone"}, "geometry": { "type": "Point", "coordinates": [-1.791249, 55.564274]} },
{ "type": "Feature", "properties": {"name":"Alfreton","postcode":"DE55 1HJ","URL":"http://motorwayservices.uk/Alfreton"}, "geometry": { "type": "Point", "coordinates": [-1.394492, 53.087453]} },
{ "type": "Feature", "properties": {"name":"Alwalton","postcode":"PE7 3UJ","URL":"http://motorwayservices.uk/Alwalton"}, "geometry": { "type": "Point", "coordinates": [-0.331666, 52.543923]} },
{ "type": "Feature", "properties": {"name":"Annandale_Water","postcode":"DG11 1HD","URL":"http://motorwayservices.uk/Annandale_Water"}, "geometry": { "type": "Point", "coordinates": [-3.416082, 55.215885]} },
{ "type": "Feature", "properties": {"name":"Appleby_Magna","postcode":"DE12 7AP","URL":"http://motorwayservices.uk/Appleby_Magna"}, "geometry": { "type": "Point", "coordinates": [-1.540577, 52.672183]} },
{ "type": "Feature", "properties": {"name":"Ashby-de-la-Zouch","postcode":"LE65 1JP","URL":"http://motorwayservices.uk/Ashby-de-la-Zouch"}, "geometry": { "type": "Point", "coordinates": [-1.448664, 52.751413]} },
{ "type": "Feature", "properties": {"name":"Ashford","postcode":"TN24 0GB","URL":"http://motorwayservices.uk/Ashford"}, "geometry": { "type": "Point", "coordinates": [0.897468, 51.124606]} },
{ "type": "Feature", "properties": {"name":"Ashgrove","postcode":"AB54 4TL","URL":"http://motorwayservices.uk/Ashgrove"}, "geometry": { "type": "Point", "coordinates": [-2.855875, 57.484275]} },
{ "type": "Feature", "properties": {"name":"Ashington","postcode":"RH20 3AT","URL":"http://motorwayservices.uk/Ashington"}, "geometry": { "type": "Point", "coordinates": [-0.386249, 50.940471]} },
{ "type": "Feature", "properties": {"name":"Astwick","postcode":"SG5 4BL","URL":"http://motorwayservices.uk/Astwick"}, "geometry": { "type": "Point", "coordinates": [-0.215812, 52.026804]} },
{ "type": "Feature", "properties": {"name":"Attleborough","postcode":"NR17 2PU","URL":"http://motorwayservices.uk/Attleborough"}, "geometry": { "type": "Point", "coordinates": [1.051085, 52.531773]} },
{ "type": "Feature", "properties": {"name":"Baldock","postcode":"SG7 5TR","URL":"http://motorwayservices.uk/Baldock"}, "geometry": { "type": "Point", "coordinates": [-0.202486, 52.014517]} },
{ "type": "Feature", "properties": {"name":"Balhaldie","postcode":"FK15 0NB","URL":"http://motorwayservices.uk/Balhaldie"}, "geometry": { "type": "Point", "coordinates": [-3.901656, 56.229968]} },
{ "type": "Feature", "properties": {"name":"Ballinluig","postcode":"PH9 0LG","URL":"http://motorwayservices.uk/Ballinluig"}, "geometry": { "type": "Point", "coordinates": [-3.66938, 56.654083]} },
{ "type": "Feature", "properties": {"name":"Ballymena","postcode":"BT44 9HA","URL":"http://motorwayservices.uk/Ballymena"}, "geometry": { "type": "Point", "coordinates": [-6.328715, 54.940272]} },
{ "type": "Feature", "properties": {"name":"Bangor","postcode":"LL57 4BG","URL":"http://motorwayservices.uk/Bangor"}, "geometry": { "type": "Point", "coordinates": [-4.106535, 53.206144]} },
{ "type": "Feature", "properties": {"name":"Bankhead","postcode":"KY7 6GH","URL":"http://motorwayservices.uk/Bankhead"}, "geometry": { "type": "Point", "coordinates": [-3.143849, 56.183364]} },
{ "type": "Feature", "properties": {"name":"Barbican","postcode":"BT32 4ET","URL":"http://motorwayservices.uk/Barbican"}, "geometry": { "type": "Point", "coordinates": [-6.217684, 54.367678]} },
{ "type": "Feature", "properties": {"name":"Barnetby","postcode":"DN20 0PA","URL":"http://motorwayservices.uk/Barnetby"}, "geometry": { "type": "Point", "coordinates": [-0.416585, 53.585669]} },
{ "type": "Feature", "properties": {"name":"Barnsdale_Bar","postcode":"WF8 3JF","URL":"http://motorwayservices.uk/Barnsdale_Bar"}, "geometry": { "type": "Point", "coordinates": [-1.238125, 53.625931]} },
{ "type": "Feature", "properties": {"name":"Barrow","postcode":"BB7 9WF","URL":"http://motorwayservices.uk/Barrow"}, "geometry": { "type": "Point", "coordinates": [-2.394371, 53.839998]} },
{ "type": "Feature", "properties": {"name":"Barthomley","postcode":"CW2 5PT","URL":"http://motorwayservices.uk/Barthomley"}, "geometry": { "type": "Point", "coordinates": [-2.337201, 53.068951]} },
{ "type": "Feature", "properties": {"name":"Barton_Mills","postcode":"IP28 6AE","URL":"http://motorwayservices.uk/Barton_Mills"}, "geometry": { "type": "Point", "coordinates": [0.533537, 52.338456]} },
{ "type": "Feature", "properties": {"name":"Barton_Park","postcode":"DL10 6NA","URL":"http://motorwayservices.uk/Barton_Park"}, "geometry": { "type": "Point", "coordinates": [-1.663042, 54.466893]} },
{ "type": "Feature", "properties": {"name":"Barton_Stacey","postcode":"SO21 3NF","URL":"http://motorwayservices.uk/Barton_Stacey"}, "geometry": { "type": "Point", "coordinates": [-1.37802, 51.180637]} },
{ "type": "Feature", "properties": {"name":"Battlefield","postcode":"SY4 3EQ","URL":"http://motorwayservices.uk/Battlefield"}, "geometry": { "type": "Point", "coordinates": [-2.717593, 52.74786]} },
{ "type": "Feature", "properties": {"name":"Baynards_Green","postcode":"OX27 7SG","URL":"http://motorwayservices.uk/Baynards_Green"}, "geometry": { "type": "Point", "coordinates": [-1.20207, 51.96072]} },
{ "type": "Feature", "properties": {"name":"Beacon_Hill","postcode":"IP6 8LP","URL":"http://motorwayservices.uk/Beacon_Hill"}, "geometry": { "type": "Point", "coordinates": [1.079871, 52.147557]} },
{ "type": "Feature", "properties": {"name":"Beacon","postcode":"HU15 1SA","URL":"http://motorwayservices.uk/Beacon"}, "geometry": { "type": "Point", "coordinates": [-0.646571, 53.766749]} },
{ "type": "Feature", "properties": {"name":"Beaconsfield","postcode":"HP9 2SE","URL":"http://motorwayservices.uk/Beaconsfield"}, "geometry": { "type": "Point", "coordinates": [-0.628195, 51.587846]} },
{ "type": "Feature", "properties": {"name":"Beccles","postcode":"NR34 0HF","URL":"http://motorwayservices.uk/Beccles"}, "geometry": { "type": "Point", "coordinates": [1.523366, 52.487543]} },
{ "type": "Feature", "properties": {"name":"Beckington","postcode":"BA11 6SF","URL":"http://motorwayservices.uk/Beckington"}, "geometry": { "type": "Point", "coordinates": [-2.284404, 51.269312]} },
{ "type": "Feature", "properties": {"name":"Bedford","postcode":"MK42 9BF","URL":"http://motorwayservices.uk/Bedford"}, "geometry": { "type": "Point", "coordinates": [-0.477289, 52.106571]} },
{ "type": "Feature", "properties": {"name":"Beechings_Way","postcode":"ME8 6AD","URL":"http://motorwayservices.uk/Beechings_Way"}, "geometry": { "type": "Point", "coordinates": [0.576568, 51.380889]} },
{ "type": "Feature", "properties": {"name":"Bell","postcode":"DY9 9XU","URL":"http://motorwayservices.uk/Bell"}, "geometry": { "type": "Point", "coordinates": [-2.08655, 52.390902]} },
{ "type": "Feature", "properties": {"name":"Bellshill","postcode":"ML4 3PD","URL":"http://motorwayservices.uk/Bellshill"}, "geometry": { "type": "Point", "coordinates": [-4.040625, 55.819802]} },
{ "type": "Feature", "properties": {"name":"Berkshire_Downs","postcode":"OX11 0RW","URL":"http://motorwayservices.uk/Berkshire_Downs"}, "geometry": { "type": "Point", "coordinates": [-1.301428, 51.562716]} },
{ "type": "Feature", "properties": {"name":"Bicester","postcode":"OX26 1BT","URL":"http://motorwayservices.uk/Bicester"}, "geometry": { "type": "Point", "coordinates": [-1.161752, 51.893734]} },
{ "type": "Feature", "properties": {"name":"Bickenhill","postcode":"B92 0EH","URL":"http://motorwayservices.uk/Bickenhill"}, "geometry": { "type": "Point", "coordinates": [-1.721605, 52.444814]} },
{ "type": "Feature", "properties": {"name":"Bicker_Bar","postcode":"PE20 3AN","URL":"http://motorwayservices.uk/Bicker_Bar"}, "geometry": { "type": "Point", "coordinates": [-0.158074, 52.930435]} },
{ "type": "Feature", "properties": {"name":"Bilbrough","postcode":"LS24 8EQ","URL":"http://motorwayservices.uk/Bilbrough"}, "geometry": { "type": "Point", "coordinates": [-1.197759, 53.902811]} },
{ "type": "Feature", "properties": {"name":"Bilbrough_Top","postcode":"YO23 3PP","URL":"http://motorwayservices.uk/Bilbrough_Top"}, "geometry": { "type": "Point", "coordinates": [-1.184639, 53.906408]} },
{ "type": "Feature", "properties": {"name":"Binley","postcode":"CV3 2ZZ","URL":"http://motorwayservices.uk/Binley"}, "geometry": { "type": "Point", "coordinates": [-1.439643, 52.388753]} },
{ "type": "Feature", "properties": {"name":"Birchanger_Green","postcode":"CM23 5QZ","URL":"http://motorwayservices.uk/Birchanger_Green"}, "geometry": { "type": "Point", "coordinates": [0.194809, 51.871647]} },
{ "type": "Feature", "properties": {"name":"Birch","postcode":"OL10 2RB","URL":"http://motorwayservices.uk/Birch"}, "geometry": { "type": "Point", "coordinates": [-2.228462, 53.566051]} },
{ "type": "Feature", "properties": {"name":"Blackburn_with_Darwen","postcode":"BB3 0DB","URL":"http://motorwayservices.uk/Blackburn_with_Darwen"}, "geometry": { "type": "Point", "coordinates": [-2.476364, 53.713152]} },
{ "type": "Feature", "properties": {"name":"Blendon","postcode":"DA15 9NT","URL":"http://motorwayservices.uk/Blendon"}, "geometry": { "type": "Point", "coordinates": [0.115813, 51.447978]} },
{ "type": "Feature", "properties": {"name":"Bloody_Oaks","postcode":"PE9 4AD","URL":"http://motorwayservices.uk/Bloody_Oaks"}, "geometry": { "type": "Point", "coordinates": [-0.533208, 52.674133]} },
{ "type": "Feature", "properties": {"name":"Blue_Bell_Hill","postcode":"ME20 7EZ","URL":"http://motorwayservices.uk/Blue_Bell_Hill"}, "geometry": { "type": "Point", "coordinates": [0.506047, 51.32012]} },
{ "type": "Feature", "properties": {"name":"Blyth","postcode":"S81 8HG","URL":"http://motorwayservices.uk/Blyth"}, "geometry": { "type": "Point", "coordinates": [-1.062269, 53.382096]} },
{ "type": "Feature", "properties": {"name":"Bobbing_Corner","postcode":"ME9 8RZ","URL":"http://motorwayservices.uk/Bobbing_Corner"}, "geometry": { "type": "Point", "coordinates": [0.706987, 51.35128]} },
{ "type": "Feature", "properties": {"name":"Bodmin_Moor","postcode":"PL15 7RR","URL":"http://motorwayservices.uk/Bodmin_Moor"}, "geometry": { "type": "Point", "coordinates": [-4.484012, 50.596432]} },
{ "type": "Feature", "properties": {"name":"Boongate","postcode":"PE1 5YA","URL":"http://motorwayservices.uk/Boongate"}, "geometry": { "type": "Point", "coordinates": [-0.21971, 52.578059]} },
{ "type": "Feature", "properties": {"name":"Boship","postcode":"BN27 4DP","URL":"http://motorwayservices.uk/Boship"}, "geometry": { "type": "Point", "coordinates": [0.231109, 50.879231]} },
{ "type": "Feature", "properties": {"name":"Bothwell","postcode":"G71 8BG","URL":"http://motorwayservices.uk/Bothwell"}, "geometry": { "type": "Point", "coordinates": [-4.063512, 55.815529]} },
{ "type": "Feature", "properties": {"name":"Bourne_End","postcode":"HP1 2SB","URL":"http://motorwayservices.uk/Bourne_End"}, "geometry": { "type": "Point", "coordinates": [-0.529759, 51.741639]} },
{ "type": "Feature", "properties": {"name":"Brackley","postcode":"NN13 5SZ","URL":"http://motorwayservices.uk/Brackley"}, "geometry": { "type": "Point", "coordinates": [-1.137096, 52.042216]} },
{ "type": "Feature", "properties": {"name":"Bradbury","postcode":"TS21 2ES","URL":"http://motorwayservices.uk/Bradbury"}, "geometry": { "type": "Point", "coordinates": [-1.502692, 54.648855]} },
{ "type": "Feature", "properties": {"name":"Braintree","postcode":"CM77 7AB","URL":"http://motorwayservices.uk/Braintree"}, "geometry": { "type": "Point", "coordinates": [0.536594, 51.868433]} },
{ "type": "Feature", "properties": {"name":"Braintree_Electric","postcode":"CM77 7AP","URL":"http://motorwayservices.uk/Braintree_Electric"}, "geometry": { "type": "Point", "coordinates": [0.522111, 51.853151]} },
{ "type": "Feature", "properties": {"name":"Brampton_Hut","postcode":"PE28 4NQ","URL":"http://motorwayservices.uk/Brampton_Hut"}, "geometry": { "type": "Point", "coordinates": [-0.252062, 52.33148]} },
{ "type": "Feature", "properties": {"name":"Breakspear_Way","postcode":"HP2 4TZ","URL":"http://motorwayservices.uk/Breakspear_Way"}, "geometry": { "type": "Point", "coordinates": [-0.425633, 51.755583]} },
{ "type": "Feature", "properties": {"name":"Brentwood","postcode":"CM15 8SD","URL":"http://motorwayservices.uk/Brentwood"}, "geometry": { "type": "Point", "coordinates": [0.343425, 51.644458]} },
{ "type": "Feature", "properties": {"name":"Bridgwater","postcode":"TA6 6TS","URL":"http://motorwayservices.uk/Bridgwater"}, "geometry": { "type": "Point", "coordinates": [-2.994232, 51.106063]} },
{ "type": "Feature", "properties": {"name":"Browns_Blue","postcode":"LE67 9PU","URL":"http://motorwayservices.uk/Browns_Blue"}, "geometry": { "type": "Point", "coordinates": [-1.305293, 52.700687]} },
{ "type": "Feature", "properties": {"name":"Broxden","postcode":"PH2 0PX","URL":"http://motorwayservices.uk/Broxden"}, "geometry": { "type": "Point", "coordinates": [-3.481691, 56.388004]} },
{ "type": "Feature", "properties": {"name":"Brundall","postcode":"NR13 5AR","URL":"http://motorwayservices.uk/Brundall"}, "geometry": { "type": "Point", "coordinates": [1.428124, 52.631921]} },
{ "type": "Feature", "properties": {"name":"Buckbarn","postcode":"RH13 8LW","URL":"http://motorwayservices.uk/Buckbarn"}, "geometry": { "type": "Point", "coordinates": [-0.341098, 50.991599]} },
{ "type": "Feature", "properties": {"name":"Buckingham","postcode":"MK18 1SH","URL":"http://motorwayservices.uk/Buckingham"}, "geometry": { "type": "Point", "coordinates": [-0.977769, 51.990061]} },
{ "type": "Feature", "properties": {"name":"Buckland","postcode":"SN7 8PY","URL":"http://motorwayservices.uk/Buckland"}, "geometry": { "type": "Point", "coordinates": [-1.487863, 51.679055]} },
{ "type": "Feature", "properties": {"name":"Budbrooke","postcode":"CV35 8RH","URL":"http://motorwayservices.uk/Budbrooke"}, "geometry": { "type": "Point", "coordinates": [-1.612329, 52.285257]} },
{ "type": "Feature", "properties": {"name":"Burton-in-Kendal","postcode":"LA6 1JF","URL":"http://motorwayservices.uk/Burton-in-Kendal"}, "geometry": { "type": "Point", "coordinates": [-2.733711, 54.179156]} },
{ "type": "Feature", "properties": {"name":"Burtonwood","postcode":"WA5 3AX","URL":"http://motorwayservices.uk/Burtonwood"}, "geometry": { "type": "Point", "coordinates": [-2.637953, 53.417246]} },
{ "type": "Feature", "properties": {"name":"Caenby_Corner","postcode":"LN8 2AS","URL":"http://motorwayservices.uk/Caenby_Corner"}, "geometry": { "type": "Point", "coordinates": [-0.54789, 53.393334]} },
{ "type": "Feature", "properties": {"name":"Cairn_Lodge","postcode":"ML11 0RJ","URL":"http://motorwayservices.uk/Cairn_Lodge"}, "geometry": { "type": "Point", "coordinates": [-3.825562, 55.58572]} },
{ "type": "Feature", "properties": {"name":"Calcutt","postcode":"SN6 6JR","URL":"http://motorwayservices.uk/Calcutt"}, "geometry": { "type": "Point", "coordinates": [-1.837798, 51.638225]} },
{ "type": "Feature", "properties": {"name":"Caldo_Windle","postcode":"WA10 6QY","URL":"http://motorwayservices.uk/Caldo_Windle"}, "geometry": { "type": "Point", "coordinates": [-2.774377, 53.469426]} },
{ "type": "Feature", "properties": {"name":"Cambridge","postcode":"CB23 4WU","URL":"http://motorwayservices.uk/Cambridge"}, "geometry": { "type": "Point", "coordinates": [-0.008821, 52.268927]} },
{ "type": "Feature", "properties": {"name":"Canley_Ford","postcode":"CV4 7BB","URL":"http://motorwayservices.uk/Canley_Ford"}, "geometry": { "type": "Point", "coordinates": [-1.549544, 52.392037]} },
{ "type": "Feature", "properties": {"name":"Capelgate","postcode":"IP9 2JJ","URL":"http://motorwayservices.uk/Capelgate"}, "geometry": { "type": "Point", "coordinates": [1.05788, 52.004929]} },
{ "type": "Feature", "properties": {"name":"Carcroft","postcode":"DN6 8LR","URL":"http://motorwayservices.uk/Carcroft"}, "geometry": { "type": "Point", "coordinates": [-1.215502, 53.588555]} },
{ "type": "Feature", "properties": {"name":"Cardiff_Gate","postcode":"CF23 8RA","URL":"http://motorwayservices.uk/Cardiff_Gate"}, "geometry": { "type": "Point", "coordinates": [-3.130235, 51.539936]} },
{ "type": "Feature", "properties": {"name":"Cardiff_West","postcode":"CF72 8SA","URL":"http://motorwayservices.uk/Cardiff_West"}, "geometry": { "type": "Point", "coordinates": [-3.306801, 51.508527]} },
{ "type": "Feature", "properties": {"name":"Carland_Cross","postcode":"TR8 5AY","URL":"http://motorwayservices.uk/Carland_Cross"}, "geometry": { "type": "Point", "coordinates": [-5.025941, 50.346953]} },
{ "type": "Feature", "properties": {"name":"Carlisle_Truckstop","postcode":"CA3 0JR","URL":"http://motorwayservices.uk/Carlisle_Truckstop"}, "geometry": { "type": "Point", "coordinates": [-2.949064, 54.92835]} },
{ "type": "Feature", "properties": {"name":"Carnforth","postcode":"LA5 9RQ","URL":"http://motorwayservices.uk/Carnforth"}, "geometry": { "type": "Point", "coordinates": [-2.75771, 54.138446]} },
{ "type": "Feature", "properties": {"name":"Cartgate_Garage","postcode":"TA14 6RA","URL":"http://motorwayservices.uk/Cartgate_Garage"}, "geometry": { "type": "Point", "coordinates": [-2.751508, 50.96174]} },
{ "type": "Feature", "properties": {"name":"Cartgate_picnic_area","postcode":"TA14 6RA","URL":"http://motorwayservices.uk/Cartgate_picnic_area"}, "geometry": { "type": "Point", "coordinates": [-2.751508, 50.96174]} },
{ "type": "Feature", "properties": {"name":"Cawledge","postcode":"NE66 2BF","URL":"http://motorwayservices.uk/Cawledge"}, "geometry": { "type": "Point", "coordinates": [-1.692464, 55.398215]} },
{ "type": "Feature", "properties": {"name":"Caxton_Gibbet","postcode":"CB23 3PD","URL":"http://motorwayservices.uk/Caxton_Gibbet"}, "geometry": { "type": "Point", "coordinates": [-0.114608, 52.230738]} },
{ "type": "Feature", "properties": {"name":"Centurion","postcode":"GL7 7JR","URL":"http://motorwayservices.uk/Centurion"}, "geometry": { "type": "Point", "coordinates": [-2.034192, 51.782007]} },
{ "type": "Feature", "properties": {"name":"Charnock_Richard","postcode":"PR7 5LR","URL":"http://motorwayservices.uk/Charnock_Richard"}, "geometry": { "type": "Point", "coordinates": [-2.692571, 53.629996]} },
{ "type": "Feature", "properties": {"name":"Chelmsford","postcode":"CM2 5PY","URL":"http://motorwayservices.uk/Chelmsford"}, "geometry": { "type": "Point", "coordinates": [0.518993, 51.75494]} },
{ "type": "Feature", "properties": {"name":"Cherwell_Valley","postcode":"OX27 7RD","URL":"http://motorwayservices.uk/Cherwell_Valley"}, "geometry": { "type": "Point", "coordinates": [-1.199931, 51.95006]} },
{ "type": "Feature", "properties": {"name":"Chester","postcode":"CH2 4QZ","URL":"http://motorwayservices.uk/Chester"}, "geometry": { "type": "Point", "coordinates": [-2.802359, 53.268279]} },
{ "type": "Feature", "properties": {"name":"Chicklade","postcode":"SP3 5ST","URL":"http://motorwayservices.uk/Chicklade"}, "geometry": { "type": "Point", "coordinates": [-2.130499, 51.111017]} },
{ "type": "Feature", "properties": {"name":"Chieveley","postcode":"RG18 9XX","URL":"http://motorwayservices.uk/Chieveley"}, "geometry": { "type": "Point", "coordinates": [-1.309575, 51.450451]} },
{ "type": "Feature", "properties": {"name":"Chimes","postcode":"BR6 7SE","URL":"http://motorwayservices.uk/Chimes"}, "geometry": { "type": "Point", "coordinates": [0.107909, 51.345358]} },
{ "type": "Feature", "properties": {"name":"Chippenham_Pit_Stop","postcode":"SN15 5LH","URL":"http://motorwayservices.uk/Chippenham_Pit_Stop"}, "geometry": { "type": "Point", "coordinates": [-2.10498, 51.511877]} },
{ "type": "Feature", "properties": {"name":"Chippenham","postcode":"SN14 6UY","URL":"http://motorwayservices.uk/Chippenham"}, "geometry": { "type": "Point", "coordinates": [-2.129526, 51.478386]} },
{ "type": "Feature", "properties": {"name":"Chiverton_Cross","postcode":"TR4 8HS","URL":"http://motorwayservices.uk/Chiverton_Cross"}, "geometry": { "type": "Point", "coordinates": [-5.165736, 50.279384]} },
{ "type": "Feature", "properties": {"name":"Cirencester","postcode":"GL7 5DS","URL":"http://motorwayservices.uk/Cirencester"}, "geometry": { "type": "Point", "coordinates": [-1.951676, 51.724698]} },
{ "type": "Feature", "properties": {"name":"Clacket_Lane","postcode":"TN16 2ER","URL":"http://motorwayservices.uk/Clacket_Lane"}, "geometry": { "type": "Point", "coordinates": [0.039848, 51.27104]} },
{ "type": "Feature", "properties": {"name":"Coastways","postcode":"YO43 3PN","URL":"http://motorwayservices.uk/Coastways"}, "geometry": { "type": "Point", "coordinates": [-0.701524, 53.874103]} },
{ "type": "Feature", "properties": {"name":"Cobham_(A2)","postcode":"DA12 3BH","URL":"http://motorwayservices.uk/Cobham_(A2)"}, "geometry": { "type": "Point", "coordinates": [0.40152, 51.400914]} },
{ "type": "Feature", "properties": {"name":"Cobham","postcode":"KT11 3DB","URL":"http://motorwayservices.uk/Cobham"}, "geometry": { "type": "Point", "coordinates": [-0.405875, 51.304268]} },
{ "type": "Feature", "properties": {"name":"Cohannon","postcode":"BT71 6HJ","URL":"http://motorwayservices.uk/Cohannon"}, "geometry": { "type": "Point", "coordinates": [-6.658127, 54.500667]} },
{ "type": "Feature", "properties": {"name":"Colchester","postcode":"CO4 5HH","URL":"http://motorwayservices.uk/Colchester"}, "geometry": { "type": "Point", "coordinates": [0.895176, 51.926541]} },
{ "type": "Feature", "properties": {"name":"Collin","postcode":"DG1 3SE","URL":"http://motorwayservices.uk/Collin"}, "geometry": { "type": "Point", "coordinates": [-3.554767, 55.068304]} },
{ "type": "Feature", "properties": {"name":"Collingtree","postcode":"NN4 0JN","URL":"http://motorwayservices.uk/Collingtree"}, "geometry": { "type": "Point", "coordinates": [-0.891688, 52.194487]} },
{ "type": "Feature", "properties": {"name":"Colsterworth","postcode":"NG33 5JR","URL":"http://motorwayservices.uk/Colsterworth"}, "geometry": { "type": "Point", "coordinates": [-0.609887, 52.802303]} },
{ "type": "Feature", "properties": {"name":"Colsterworth_(North)","postcode":"NG33 5JJ","URL":"http://motorwayservices.uk/Colsterworth_(North)"}, "geometry": { "type": "Point", "coordinates": [-0.613289, 52.806076]} },
{ "type": "Feature", "properties": {"name":"Commerce_Park","postcode":"BA11 2RY","URL":"http://motorwayservices.uk/Commerce_Park"}, "geometry": { "type": "Point", "coordinates": [-2.291747, 51.24292]} },
{ "type": "Feature", "properties": {"name":"Coneygarth","postcode":"DL7 9EG","URL":"http://motorwayservices.uk/Coneygarth"}, "geometry": { "type": "Point", "coordinates": [-1.568597, 54.311852]} },
{ "type": "Feature", "properties": {"name":"Copdock","postcode":"IP8 3TT","URL":"http://motorwayservices.uk/Copdock"}, "geometry": { "type": "Point", "coordinates": [1.099561, 52.041015]} },
{ "type": "Feature", "properties": {"name":"Corley","postcode":"CV7 8NR","URL":"http://motorwayservices.uk/Corley"}, "geometry": { "type": "Point", "coordinates": [-1.546728, 52.471822]} },
{ "type": "Feature", "properties": {"name":"Cornwall","postcode":"PL26 8UF","URL":"http://motorwayservices.uk/Cornwall"}, "geometry": { "type": "Point", "coordinates": [-4.8158, 50.425987]} },
{ "type": "Feature", "properties": {"name":"Countess","postcode":"SP4 7AS","URL":"http://motorwayservices.uk/Countess"}, "geometry": { "type": "Point", "coordinates": [-1.782257, 51.179717]} },
{ "type": "Feature", "properties": {"name":"Country","postcode":"PE8 6TZ","URL":"http://motorwayservices.uk/Country"}, "geometry": { "type": "Point", "coordinates": [-0.426394, 52.506973]} },
{ "type": "Feature", "properties": {"name":"Cromwell","postcode":"NG23 6JG","URL":"http://motorwayservices.uk/Cromwell"}, "geometry": { "type": "Point", "coordinates": [-0.805111, 53.144224]} },
{ "type": "Feature", "properties": {"name":"Crossbush","postcode":"BN17 7QQ","URL":"http://motorwayservices.uk/Crossbush"}, "geometry": { "type": "Point", "coordinates": [-0.5419, 50.839958]} },
{ "type": "Feature", "properties": {"name":"Crossgates","postcode":"LD1 6RE","URL":"http://motorwayservices.uk/Crossgates"}, "geometry": { "type": "Point", "coordinates": [-3.330888, 52.273816]} },
{ "type": "Feature", "properties": {"name":"Cross_Hands","postcode":"SA14 6RD","URL":"http://motorwayservices.uk/Cross_Hands"}, "geometry": { "type": "Point", "coordinates": [-4.083697, 51.797565]} },
{ "type": "Feature", "properties": {"name":"Cullompton","postcode":"EX15 1PA","URL":"http://motorwayservices.uk/Cullompton"}, "geometry": { "type": "Point", "coordinates": [-3.37512, 50.857254]} },
{ "type": "Feature", "properties": {"name":"Daff-Y-Nant","postcode":"HR9 6DW","URL":"http://motorwayservices.uk/Daff-Y-Nant"}, "geometry": { "type": "Point", "coordinates": [-2.667376, 51.849034]} },
{ "type": "Feature", "properties": {"name":"Darrington","postcode":"WF8 3HU","URL":"http://motorwayservices.uk/Darrington"}, "geometry": { "type": "Point", "coordinates": [-1.266021, 53.663263]} },
{ "type": "Feature", "properties": {"name":"Darsham","postcode":"IP17 3PW","URL":"http://motorwayservices.uk/Darsham"}, "geometry": { "type": "Point", "coordinates": [1.527116, 52.274786]} },
{ "type": "Feature", "properties": {"name":"Deanshanger","postcode":"MK19 6JU","URL":"http://motorwayservices.uk/Deanshanger"}, "geometry": { "type": "Point", "coordinates": [-0.886456, 52.042921]} },
{ "type": "Feature", "properties": {"name":"Derby_and_Burton","postcode":"DE65 6DX","URL":"http://motorwayservices.uk/Derby_and_Burton"}, "geometry": { "type": "Point", "coordinates": [-1.564104, 52.863948]} },
{ "type": "Feature", "properties": {"name":"Derby_South","postcode":"DE72 2WA","URL":"http://motorwayservices.uk/Derby_South"}, "geometry": { "type": "Point", "coordinates": [-1.370986, 52.867856]} },
{ "type": "Feature", "properties": {"name":"Detling_Hill","postcode":"ME14 3HT","URL":"http://motorwayservices.uk/Detling_Hill"}, "geometry": { "type": "Point", "coordinates": [0.598862, 51.301746]} },
{ "type": "Feature", "properties": {"name":"Doddington","postcode":"LN6 3SE","URL":"http://motorwayservices.uk/Doddington"}, "geometry": { "type": "Point", "coordinates": [-0.615057, 53.207205]} },
{ "type": "Feature", "properties": {"name":"Dodwells","postcode":"LE10 3ED","URL":"http://motorwayservices.uk/Dodwells"}, "geometry": { "type": "Point", "coordinates": [-1.409383, 52.533283]} },
{ "type": "Feature", "properties": {"name":"Doncaster_(North)","postcode":"DN8 5GS","URL":"http://motorwayservices.uk/Doncaster_(North)"}, "geometry": { "type": "Point", "coordinates": [-0.992325, 53.592151]} },
{ "type": "Feature", "properties": {"name":"Donington","postcode":"DE74 2TN","URL":"http://motorwayservices.uk/Donington"}, "geometry": { "type": "Point", "coordinates": [-1.308152, 52.82176]} },
{ "type": "Feature", "properties": {"name":"Dover_Port","postcode":"CT16 1JA","URL":"http://motorwayservices.uk/Dover_Port"}, "geometry": { "type": "Point", "coordinates": [1.334821, 51.129204]} },
{ "type": "Feature", "properties": {"name":"Dreghorn","postcode":"EH13 9QR","URL":"http://motorwayservices.uk/Dreghorn"}, "geometry": { "type": "Point", "coordinates": [-3.232593, 55.901088]} },
{ "type": "Feature", "properties": {"name":"Dublin_Road","postcode":"BT35 8RL","URL":"http://motorwayservices.uk/Dublin_Road"}, "geometry": { "type": "Point", "coordinates": [-6.353573, 54.121457]} },
{ "type": "Feature", "properties": {"name":"Ducklington","postcode":"OX28 4TT","URL":"http://motorwayservices.uk/Ducklington"}, "geometry": { "type": "Point", "coordinates": [-1.49248, 51.774351]} },
{ "type": "Feature", "properties": {"name":"Dumbarton_Gateway","postcode":"G82 2TZ","URL":"http://motorwayservices.uk/Dumbarton_Gateway"}, "geometry": { "type": "Point", "coordinates": [-4.516692, 55.935568]} },
{ "type": "Feature", "properties": {"name":"Dungannon","postcode":"BT70 1AE","URL":"http://motorwayservices.uk/Dungannon"}, "geometry": { "type": "Point", "coordinates": [-6.782159, 54.47979]} },
{ "type": "Feature", "properties": {"name":"Durham","postcode":"DH6 5NP","URL":"http://motorwayservices.uk/Durham"}, "geometry": { "type": "Point", "coordinates": [-1.523024, 54.727922]} },
{ "type": "Feature", "properties": {"name":"Eashing","postcode":"GU7 2QG","URL":"http://motorwayservices.uk/Eashing"}, "geometry": { "type": "Point", "coordinates": [-0.648673, 51.186411]} },
{ "type": "Feature", "properties": {"name":"Easington","postcode":"SR7 8SS","URL":"http://motorwayservices.uk/Easington"}, "geometry": { "type": "Point", "coordinates": [-1.359634, 54.802585]} },
{ "type": "Feature", "properties": {"name":"East_Horndon","postcode":"CM13 3LL","URL":"http://motorwayservices.uk/East_Horndon"}, "geometry": { "type": "Point", "coordinates": [0.355577, 51.579905]} },
{ "type": "Feature", "properties": {"name":"Elwick","postcode":"TS27 3HH","URL":"http://motorwayservices.uk/Elwick"}, "geometry": { "type": "Point", "coordinates": [-1.303035, 54.655376]} },
{ "type": "Feature", "properties": {"name":"Ely","postcode":"CB6 3NN","URL":"http://motorwayservices.uk/Ely"}, "geometry": { "type": "Point", "coordinates": [0.238684, 52.390398]} },
{ "type": "Feature", "properties": {"name":"Evesham","postcode":"WR11 4TP","URL":"http://motorwayservices.uk/Evesham"}, "geometry": { "type": "Point", "coordinates": [-1.943843, 52.112044]} },
{ "type": "Feature", "properties": {"name":"Exeter","postcode":"EX2 7HF","URL":"http://motorwayservices.uk/Exeter"}, "geometry": { "type": "Point", "coordinates": [-3.4644, 50.71413]} },
{ "type": "Feature", "properties": {"name":"Eye_Green","postcode":"PE6 7TN","URL":"http://motorwayservices.uk/Eye_Green"}, "geometry": { "type": "Point", "coordinates": [-0.186807, 52.612507]} },
{ "type": "Feature", "properties": {"name":"Eye","postcode":"PE1 4BF","URL":"http://motorwayservices.uk/Eye"}, "geometry": { "type": "Point", "coordinates": [-0.210785, 52.599728]} },
{ "type": "Feature", "properties": {"name":"Eynsham","postcode":"OX29 4EN","URL":"http://motorwayservices.uk/Eynsham"}, "geometry": { "type": "Point", "coordinates": [-1.366947, 51.788056]} },
{ "type": "Feature", "properties": {"name":"Fairfield","postcode":"LN11 0WA","URL":"http://motorwayservices.uk/Fairfield"}, "geometry": { "type": "Point", "coordinates": [-0.00755, 53.38319]} },
{ "type": "Feature", "properties": {"name":"Family_Farm","postcode":"OX25 3QQ","URL":"http://motorwayservices.uk/Family_Farm"}, "geometry": { "type": "Point", "coordinates": [-1.229493, 51.850014]} },
{ "type": "Feature", "properties": {"name":"Farlington","postcode":"PO6 1UN","URL":"http://motorwayservices.uk/Farlington"}, "geometry": { "type": "Point", "coordinates": [-1.041313, 50.836181]} },
{ "type": "Feature", "properties": {"name":"Farnham","postcode":"GU9 8SS","URL":"http://motorwayservices.uk/Farnham"}, "geometry": { "type": "Point", "coordinates": [-0.789509, 51.215641]} },
{ "type": "Feature", "properties": {"name":"Feering","postcode":"CO5 9EL","URL":"http://motorwayservices.uk/Feering"}, "geometry": { "type": "Point", "coordinates": [0.730889, 51.852516]} },
{ "type": "Feature", "properties": {"name":"Fenstanton","postcode":"CB23 4LU","URL":"http://motorwayservices.uk/Fenstanton"}, "geometry": { "type": "Point", "coordinates": [-0.052014, 52.282938]} },
{ "type": "Feature", "properties": {"name":"Ferrybridge","postcode":"WF11 0AF","URL":"http://motorwayservices.uk/Ferrybridge"}, "geometry": { "type": "Point", "coordinates": [-1.266666, 53.697602]} },
{ "type": "Feature", "properties": {"name":"Ferrymuir","postcode":"EH30 9QZ","URL":"http://motorwayservices.uk/Ferrymuir"}, "geometry": { "type": "Point", "coordinates": [-3.398868, 55.982798]} },
{ "type": "Feature", "properties": {"name":"Finavon","postcode":"DD8 3QD","URL":"http://motorwayservices.uk/Finavon"}, "geometry": { "type": "Point", "coordinates": [-2.827899, 56.706808]} },
{ "type": "Feature", "properties": {"name":"Fleet","postcode":"GU51 1AA","URL":"http://motorwayservices.uk/Fleet"}, "geometry": { "type": "Point", "coordinates": [-0.855807, 51.295546]} },
{ "type": "Feature", "properties": {"name":"Folkestone","postcode":"CT21 4BL","URL":"http://motorwayservices.uk/Folkestone"}, "geometry": { "type": "Point", "coordinates": [1.04408, 51.094991]} },
{ "type": "Feature", "properties": {"name":"Folly_Tower","postcode":"NP4 0XB","URL":"http://motorwayservices.uk/Folly_Tower"}, "geometry": { "type": "Point", "coordinates": [-3.021239, 51.692794]} },
{ "type": "Feature", "properties": {"name":"Fontwell","postcode":"BN18 0SB","URL":"http://motorwayservices.uk/Fontwell"}, "geometry": { "type": "Point", "coordinates": [-0.64726, 50.854564]} },
{ "type": "Feature", "properties": {"name":"Forthview","postcode":"EH30 9YJ","URL":"http://motorwayservices.uk/Forthview"}, "geometry": { "type": "Point", "coordinates": [-3.406828, 55.984023]} },
{ "type": "Feature", "properties": {"name":"Fosseway","postcode":"NG12 2JU","URL":"http://motorwayservices.uk/Fosseway"}, "geometry": { "type": "Point", "coordinates": [-1.008228, 52.916895]} },
{ "type": "Feature", "properties": {"name":"Foston","postcode":"NG32 2JS","URL":"http://motorwayservices.uk/Foston"}, "geometry": { "type": "Point", "coordinates": [-0.724196, 52.972297]} },
{ "type": "Feature", "properties": {"name":"Four_Pools","postcode":"WR11 2UT","URL":"http://motorwayservices.uk/Four_Pools"}, "geometry": { "type": "Point", "coordinates": [-1.938341, 52.07749]} },
{ "type": "Feature", "properties": {"name":"Fourwentways","postcode":"CB21 6AP","URL":"http://motorwayservices.uk/Fourwentways"}, "geometry": { "type": "Point", "coordinates": [0.222478, 52.126784]} },
{ "type": "Feature", "properties": {"name":"Frankley","postcode":"B32 4AR","URL":"http://motorwayservices.uk/Frankley"}, "geometry": { "type": "Point", "coordinates": [-2.016583, 52.430009]} },
{ "type": "Feature", "properties": {"name":"Frontier_Park","postcode":"BB1 4AU","URL":"http://motorwayservices.uk/Frontier_Park"}, "geometry": { "type": "Point", "coordinates": [-2.441187, 53.758495]} },
{ "type": "Feature", "properties": {"name":"Galleys_Corner","postcode":"CM77 8GG","URL":"http://motorwayservices.uk/Galleys_Corner"}, "geometry": { "type": "Point", "coordinates": [0.581852, 51.869309]} },
{ "type": "Feature", "properties": {"name":"Gate","postcode":"ME13 9LN","URL":"http://motorwayservices.uk/Gate"}, "geometry": { "type": "Point", "coordinates": [0.99572, 51.289413]} },
{ "type": "Feature", "properties": {"name":"Gateway","postcode":"CH7 6HB","URL":"http://motorwayservices.uk/Gateway"}, "geometry": { "type": "Point", "coordinates": [-3.090834, 53.197766]} },
{ "type": "Feature", "properties": {"name":"Gledrid","postcode":"SY11 3EN","URL":"http://motorwayservices.uk/Gledrid"}, "geometry": { "type": "Point", "coordinates": [-3.042888, 52.913627]} },
{ "type": "Feature", "properties": {"name":"Glenshane","postcode":"BT46 5JZ","URL":"http://motorwayservices.uk/Glenshane"}, "geometry": { "type": "Point", "coordinates": [-6.739531, 54.851055]} },
{ "type": "Feature", "properties": {"name":"Glinton","postcode":"PE6 7JR","URL":"http://motorwayservices.uk/Glinton"}, "geometry": { "type": "Point", "coordinates": [-0.297906, 52.63772]} },
{ "type": "Feature", "properties": {"name":"Gloucester","postcode":"GL4 0DN","URL":"http://motorwayservices.uk/Gloucester"}, "geometry": { "type": "Point", "coordinates": [-2.228629, 51.820244]} },
{ "type": "Feature", "properties": {"name":"Golden_Fleece","postcode":"CA4 0AN","URL":"http://motorwayservices.uk/Golden_Fleece"}, "geometry": { "type": "Point", "coordinates": [-2.875933, 54.856406]} },
{ "type": "Feature", "properties": {"name":"Gordano","postcode":"BS20 7XG","URL":"http://motorwayservices.uk/Gordano"}, "geometry": { "type": "Point", "coordinates": [-2.707929, 51.477507]} },
{ "type": "Feature", "properties": {"name":"Gowy","postcode":"CH3 7HN","URL":"http://motorwayservices.uk/Gowy"}, "geometry": { "type": "Point", "coordinates": [-2.818193, 53.19839]} },
{ "type": "Feature", "properties": {"name":"Grand_Dale","postcode":"HU14 3HG","URL":"http://motorwayservices.uk/Grand_Dale"}, "geometry": { "type": "Point", "coordinates": [-0.526065, 53.72458]} },
{ "type": "Feature", "properties": {"name":"Grange_Farm","postcode":"NN4 0LY","URL":"http://motorwayservices.uk/Grange_Farm"}, "geometry": { "type": "Point", "coordinates": [-0.891853, 52.193725]} },
{ "type": "Feature", "properties": {"name":"Grantham_North","postcode":"NG32 2AB","URL":"http://motorwayservices.uk/Grantham_North"}, "geometry": { "type": "Point", "coordinates": [-0.677963, 52.950611]} },
{ "type": "Feature", "properties": {"name":"Great_Dunmow","postcode":"CM6 1SJ","URL":"http://motorwayservices.uk/Great_Dunmow"}, "geometry": { "type": "Point", "coordinates": [0.33571, 51.869401]} },
{ "type": "Feature", "properties": {"name":"Great_Ponton","postcode":"NG33 5DW","URL":"http://motorwayservices.uk/Great_Ponton"}, "geometry": { "type": "Point", "coordinates": [-0.629876, 52.860576]} },
{ "type": "Feature", "properties": {"name":"Gretna","postcode":"DG16 5HQ","URL":"http://motorwayservices.uk/Gretna"}, "geometry": { "type": "Point", "coordinates": [-3.084493, 55.010343]} },
{ "type": "Feature", "properties": {"name":"Greystones","postcode":"LA11 6RJ","URL":"http://motorwayservices.uk/Greystones"}, "geometry": { "type": "Point", "coordinates": [-2.861933, 54.234172]} },
{ "type": "Feature", "properties": {"name":"Gristhwaite","postcode":"YO7 3HN","URL":"http://motorwayservices.uk/Gristhwaite"}, "geometry": { "type": "Point", "coordinates": [-1.362669, 54.197969]} },
{ "type": "Feature", "properties": {"name":"Halfway_House","postcode":"SY5 9DU","URL":"http://motorwayservices.uk/Halfway_House"}, "geometry": { "type": "Point", "coordinates": [-2.968039, 52.699234]} },
{ "type": "Feature", "properties": {"name":"Halt","postcode":"LD1 6NN","URL":"http://motorwayservices.uk/Halt"}, "geometry": { "type": "Point", "coordinates": [-3.497097, 52.260953]} },
{ "type": "Feature", "properties": {"name":"Hamilton","postcode":"ML3 6JW","URL":"http://motorwayservices.uk/Hamilton"}, "geometry": { "type": "Point", "coordinates": [-4.035104, 55.787109]} },
{ "type": "Feature", "properties": {"name":"Handcross","postcode":"RH17 6BL","URL":"http://motorwayservices.uk/Handcross"}, "geometry": { "type": "Point", "coordinates": [-0.199348, 51.054781]} },
{ "type": "Feature", "properties": {"name":"Harbledown","postcode":"CT2 9AZ","URL":"http://motorwayservices.uk/Harbledown"}, "geometry": { "type": "Point", "coordinates": [1.014747, 51.287337]} },
{ "type": "Feature", "properties": {"name":"Hardwicke","postcode":"GL2 2RQ","URL":"http://motorwayservices.uk/Hardwicke"}, "geometry": { "type": "Point", "coordinates": [-2.290669, 51.805422]} },
{ "type": "Feature", "properties": {"name":"Hartlebury","postcode":"DY11 7XP","URL":"http://motorwayservices.uk/Hartlebury"}, "geometry": { "type": "Point", "coordinates": [-2.223886, 52.324581]} },
{ "type": "Feature", "properties": {"name":"Hartshead_Moor","postcode":"HD6 4JX","URL":"http://motorwayservices.uk/Hartshead_Moor"}, "geometry": { "type": "Point", "coordinates": [-1.74646, 53.714327]} },
{ "type": "Feature", "properties": {"name":"Haydock_Island","postcode":"WA12 0HL","URL":"http://motorwayservices.uk/Haydock_Island"}, "geometry": { "type": "Point", "coordinates": [-2.635718, 53.472177]} },
{ "type": "Feature", "properties": {"name":"Hayle","postcode":"TR27 5DG","URL":"http://motorwayservices.uk/Hayle"}, "geometry": { "type": "Point", "coordinates": [-5.395741, 50.197856]} },
{ "type": "Feature", "properties": {"name":"Hazelgrove","postcode":"BA22 7JE","URL":"http://motorwayservices.uk/Hazelgrove"}, "geometry": { "type": "Point", "coordinates": [-2.572282, 51.029424]} },
{ "type": "Feature", "properties": {"name":"Heartlands","postcode":"EH47 0TB","URL":"http://motorwayservices.uk/Heartlands"}, "geometry": { "type": "Point", "coordinates": [-3.703131, 55.868614]} },
{ "type": "Feature", "properties": {"name":"Heart_of_Scotland","postcode":"ML7 5TT","URL":"http://motorwayservices.uk/Heart_of_Scotland"}, "geometry": { "type": "Point", "coordinates": [-3.747481, 55.868472]} },
{ "type": "Feature", "properties": {"name":"Heath","postcode":"S44 5SF","URL":"http://motorwayservices.uk/Heath"}, "geometry": { "type": "Point", "coordinates": [-1.342216, 53.200169]} },
{ "type": "Feature", "properties": {"name":"Heston","postcode":"TW5 9NB","URL":"http://motorwayservices.uk/Heston"}, "geometry": { "type": "Point", "coordinates": [-0.396126, 51.486656]} },
{ "type": "Feature", "properties": {"name":"Hickstead","postcode":"RH17 5NZ","URL":"http://motorwayservices.uk/Hickstead"}, "geometry": { "type": "Point", "coordinates": [-0.190427, 50.968407]} },
{ "type": "Feature", "properties": {"name":"High_Brough_Moor","postcode":"DL10 6PB","URL":"http://motorwayservices.uk/High_Brough_Moor"}, "geometry": { "type": "Point", "coordinates": [-1.668298, 54.428445]} },
{ "type": "Feature", "properties": {"name":"Hillsborough","postcode":"BT26 6JA","URL":"http://motorwayservices.uk/Hillsborough"}, "geometry": { "type": "Point", "coordinates": [-6.11193, 54.443673]} },
{ "type": "Feature", "properties": {"name":"Hilton_Park","postcode":"WV11 2AT","URL":"http://motorwayservices.uk/Hilton_Park"}, "geometry": { "type": "Point", "coordinates": [-2.054986, 52.64243]} },
{ "type": "Feature", "properties": {"name":"Hinckley","postcode":"LE10 3ED","URL":"http://motorwayservices.uk/Hinckley"}, "geometry": { "type": "Point", "coordinates": [-1.409383, 52.533283]} },
{ "type": "Feature", "properties": {"name":"Hogs_Back","postcode":"GU10 1EU","URL":"http://motorwayservices.uk/Hogs_Back"}, "geometry": { "type": "Point", "coordinates": [-0.726141, 51.225876]} },
{ "type": "Feature", "properties": {"name":"Honiton","postcode":"EX14 1BQ","URL":"http://motorwayservices.uk/Honiton"}, "geometry": { "type": "Point", "coordinates": [-3.206498, 50.795585]} },
{ "type": "Feature", "properties": {"name":"Hop_Oast","postcode":"RH13 0AR","URL":"http://motorwayservices.uk/Hop_Oast"}, "geometry": { "type": "Point", "coordinates": [-0.345674, 51.045285]} },
{ "type": "Feature", "properties": {"name":"Hopwood_Park","postcode":"B48 7AU","URL":"http://motorwayservices.uk/Hopwood_Park"}, "geometry": { "type": "Point", "coordinates": [-1.945766, 52.363718]} },
{ "type": "Feature", "properties": {"name":"Horsham","postcode":"RH12 3NS","URL":"http://motorwayservices.uk/Horsham"}, "geometry": { "type": "Point", "coordinates": [-0.354206, 51.069794]} },
{ "type": "Feature", "properties": {"name":"Hovefield","postcode":"SS12 9HZ","URL":"http://motorwayservices.uk/Hovefield"}, "geometry": { "type": "Point", "coordinates": [0.528397, 51.590267]} },
{ "type": "Feature", "properties": {"name":"Hull_West","postcode":"HU14 3LN","URL":"http://motorwayservices.uk/Hull_West"}, "geometry": { "type": "Point", "coordinates": [-0.482009, 53.723849]} },
{ "type": "Feature", "properties": {"name":"Ilminster","postcode":"TA19 9PT","URL":"http://motorwayservices.uk/Ilminster"}, "geometry": { "type": "Point", "coordinates": [-2.940705, 50.933958]} },
{ "type": "Feature", "properties": {"name":"Ingleby_Arncliffe","postcode":"DL6 3JT","URL":"http://motorwayservices.uk/Ingleby_Arncliffe"}, "geometry": { "type": "Point", "coordinates": [-1.320214, 54.404842]} },
{ "type": "Feature", "properties": {"name":"Ings","postcode":"LA8 9PY","URL":"http://motorwayservices.uk/Ings"}, "geometry": { "type": "Point", "coordinates": [-2.853198, 54.380245]} },
{ "type": "Feature", "properties": {"name":"Interchange","postcode":"NG24 2DF","URL":"http://motorwayservices.uk/Interchange"}, "geometry": { "type": "Point", "coordinates": [-0.790774, 53.090306]} },
{ "type": "Feature", "properties": {"name":"J29_Truckstop","postcode":"S42 5SA","URL":"http://motorwayservices.uk/J29_Truckstop"}, "geometry": { "type": "Point", "coordinates": [-1.350518, 53.186766]} },
{ "type": "Feature", "properties": {"name":"J38_Truckstop","postcode":"CA10 3SS","URL":"http://motorwayservices.uk/J38_Truckstop"}, "geometry": { "type": "Point", "coordinates": [-2.593409, 54.43914]} },
{ "type": "Feature", "properties": {"name":"Jeremys_Corner","postcode":"RH17 5QD","URL":"http://motorwayservices.uk/Jeremys_Corner"}, "geometry": { "type": "Point", "coordinates": [-0.199686, 51.012227]} },
{ "type": "Feature", "properties": {"name":"Jubilee","postcode":"CT15 5FD","URL":"http://motorwayservices.uk/Jubilee"}, "geometry": { "type": "Point", "coordinates": [1.330364, 51.144533]} },
{ "type": "Feature", "properties": {"name":"Keele","postcode":"ST5 5HG","URL":"http://motorwayservices.uk/Keele"}, "geometry": { "type": "Point", "coordinates": [-2.2909, 52.992774]} },
{ "type": "Feature", "properties": {"name":"Kennford","postcode":"EX6 7UD","URL":"http://motorwayservices.uk/Kennford"}, "geometry": { "type": "Point", "coordinates": [-3.537292, 50.661252]} },
{ "type": "Feature", "properties": {"name":"Kettering","postcode":"NN14 1RW","URL":"http://motorwayservices.uk/Kettering"}, "geometry": { "type": "Point", "coordinates": [-0.730875, 52.380626]} },
{ "type": "Feature", "properties": {"name":"Killington_Lake","postcode":"LA8 0NW","URL":"http://motorwayservices.uk/Killington_Lake"}, "geometry": { "type": "Point", "coordinates": [-2.635838, 54.313625]} },
{ "type": "Feature", "properties": {"name":"Kilmarnock","postcode":"KA1 5LQ","URL":"http://motorwayservices.uk/Kilmarnock"}, "geometry": { "type": "Point", "coordinates": [-4.471808, 55.597173]} },
{ "type": "Feature", "properties": {"name":"Kilmington_Cross","postcode":"EX13 7RB","URL":"http://motorwayservices.uk/Kilmington_Cross"}, "geometry": { "type": "Point", "coordinates": [-3.032253, 50.778866]} },
{ "type": "Feature", "properties": {"name":"Kincardine_Bridge","postcode":"FK2 8PF","URL":"http://motorwayservices.uk/Kincardine_Bridge"}, "geometry": { "type": "Point", "coordinates": [-3.7587, 56.054018]} },
{ "type": "Feature", "properties": {"name":"Kingsclere","postcode":"RG20 4TA","URL":"http://motorwayservices.uk/Kingsclere"}, "geometry": { "type": "Point", "coordinates": [-1.256428, 51.334392]} },
{ "type": "Feature", "properties": {"name":"Kingsham","postcode":"PO19 8TH","URL":"http://motorwayservices.uk/Kingsham"}, "geometry": { "type": "Point", "coordinates": [-0.778565, 50.826532]} },
{ "type": "Feature", "properties": {"name":"Kings_Lynn","postcode":"PE34 3LW","URL":"http://motorwayservices.uk/Kings_Lynn"}, "geometry": { "type": "Point", "coordinates": [0.387058, 52.744466]} },
{ "type": "Feature", "properties": {"name":"Kinmel_Park","postcode":"LL18 5XW","URL":"http://motorwayservices.uk/Kinmel_Park"}, "geometry": { "type": "Point", "coordinates": [-3.517796, 53.267644]} },
{ "type": "Feature", "properties": {"name":"Kinross","postcode":"KY13 0NQ","URL":"http://motorwayservices.uk/Kinross"}, "geometry": { "type": "Point", "coordinates": [-3.443989, 56.208744]} },
{ "type": "Feature", "properties": {"name":"Knutsford","postcode":"WA16 0TL","URL":"http://motorwayservices.uk/Knutsford"}, "geometry": { "type": "Point", "coordinates": [-2.400876, 53.300974]} },
{ "type": "Feature", "properties": {"name":"Lancaster","postcode":"LA2 9DU","URL":"http://motorwayservices.uk/Lancaster"}, "geometry": { "type": "Point", "coordinates": [-2.760582, 53.961645]} },
{ "type": "Feature", "properties": {"name":"Leeds_Skelton_Lake","postcode":"LS9 0AS","URL":"http://motorwayservices.uk/Leeds_Skelton_Lake"}, "geometry": { "type": "Point", "coordinates": [-1.471273, 53.772696]} },
{ "type": "Feature", "properties": {"name":"Leeming_Bar","postcode":"DL8 1DT","URL":"http://motorwayservices.uk/Leeming_Bar"}, "geometry": { "type": "Point", "coordinates": [-1.566728, 54.298943]} },
{ "type": "Feature", "properties": {"name":"Leicester_Forest_East","postcode":"LE3 3GB","URL":"http://motorwayservices.uk/Leicester_Forest_East"}, "geometry": { "type": "Point", "coordinates": [-1.206122, 52.619002]} },
{ "type": "Feature", "properties": {"name":"Leicester_North","postcode":"LE4 3BT","URL":"http://motorwayservices.uk/Leicester_North"}, "geometry": { "type": "Point", "coordinates": [-1.127076, 52.690601]} },
{ "type": "Feature", "properties": {"name":"Leigh_Delamere","postcode":"SN14 6LB","URL":"http://motorwayservices.uk/Leigh_Delamere"}, "geometry": { "type": "Point", "coordinates": [-2.158225, 51.511799]} },
{ "type": "Feature", "properties": {"name":"Lindisfarne","postcode":"TD15 2PD","URL":"http://motorwayservices.uk/Lindisfarne"}, "geometry": { "type": "Point", "coordinates": [-1.916948, 55.672265]} },
{ "type": "Feature", "properties": {"name":"Liphook","postcode":"GU30 7TT","URL":"http://motorwayservices.uk/Liphook"}, "geometry": { "type": "Point", "coordinates": [-0.819147, 51.083813]} },
{ "type": "Feature", "properties": {"name":"Lisburn","postcode":"BT27 5SG","URL":"http://motorwayservices.uk/Lisburn"}, "geometry": { "type": "Point", "coordinates": [-6.011489, 54.520365]} },
{ "type": "Feature", "properties": {"name":"Littleport","postcode":"CB6 1JJ","URL":"http://motorwayservices.uk/Littleport"}, "geometry": { "type": "Point", "coordinates": [0.294769, 52.461347]} },
{ "type": "Feature", "properties": {"name":"Llanddulas","postcode":"LL22 8HH","URL":"http://motorwayservices.uk/Llanddulas"}, "geometry": { "type": "Point", "coordinates": [-3.642482, 53.289985]} },
{ "type": "Feature", "properties": {"name":"Llanrhystud","postcode":"SY23 5BT","URL":"http://motorwayservices.uk/Llanrhystud"}, "geometry": { "type": "Point", "coordinates": [-4.14734, 52.303739]} },
{ "type": "Feature", "properties": {"name":"Locks_Garage","postcode":"HR2 9AS","URL":"http://motorwayservices.uk/Locks_Garage"}, "geometry": { "type": "Point", "coordinates": [-2.794567, 52.000695]} },
{ "type": "Feature", "properties": {"name":"Lomondgate","postcode":"G82 2QU","URL":"http://motorwayservices.uk/Lomondgate"}, "geometry": { "type": "Point", "coordinates": [-4.560604, 55.957249]} },
{ "type": "Feature", "properties": {"name":"London_Gateway","postcode":"NW7 3HU","URL":"http://motorwayservices.uk/London_Gateway"}, "geometry": { "type": "Point", "coordinates": [-0.264336, 51.631339]} },
{ "type": "Feature", "properties": {"name":"Luxmore","postcode":"DN40 3BH","URL":"http://motorwayservices.uk/Luxmore"}, "geometry": { "type": "Point", "coordinates": [-0.243374, 53.609106]} },
{ "type": "Feature", "properties": {"name":"Lymm","postcode":"WA13 0SP","URL":"http://motorwayservices.uk/Lymm"}, "geometry": { "type": "Point", "coordinates": [-2.504454, 53.359117]} },
{ "type": "Feature", "properties": {"name":"Macmerry","postcode":"EH33 1EJ","URL":"http://motorwayservices.uk/Macmerry"}, "geometry": { "type": "Point", "coordinates": [-2.866737, 55.956012]} },
{ "type": "Feature", "properties": {"name":"Magor","postcode":"NP26 3YL","URL":"http://motorwayservices.uk/Magor"}, "geometry": { "type": "Point", "coordinates": [-2.837544, 51.587529]} },
{ "type": "Feature", "properties": {"name":"Maidenhead","postcode":"SL6 0AP","URL":"http://motorwayservices.uk/Maidenhead"}, "geometry": { "type": "Point", "coordinates": [-0.695151, 51.523031]} },
{ "type": "Feature", "properties": {"name":"Maidstone","postcode":"ME17 1SS","URL":"http://motorwayservices.uk/Maidstone"}, "geometry": { "type": "Point", "coordinates": [0.613865, 51.266597]} },
{ "type": "Feature", "properties": {"name":"Mangrove","postcode":"CV23 9LG","URL":"http://motorwayservices.uk/Mangrove"}, "geometry": { "type": "Point", "coordinates": [-1.340604, 52.34435]} },
{ "type": "Feature", "properties": {"name":"Manor_Way","postcode":"B62 8RJ","URL":"http://motorwayservices.uk/Manor_Way"}, "geometry": { "type": "Point", "coordinates": [-2.038541, 52.445782]} },
{ "type": "Feature", "properties": {"name":"Maresfield","postcode":"TN22 5EP","URL":"http://motorwayservices.uk/Maresfield"}, "geometry": { "type": "Point", "coordinates": [0.090301, 50.9888]} },
{ "type": "Feature", "properties": {"name":"Market_Harborough","postcode":"LE16 7FD","URL":"http://motorwayservices.uk/Market_Harborough"}, "geometry": { "type": "Point", "coordinates": [-0.941523, 52.511046]} },
{ "type": "Feature", "properties": {"name":"Markfield","postcode":"LE67 9PP","URL":"http://motorwayservices.uk/Markfield"}, "geometry": { "type": "Point", "coordinates": [-1.296974, 52.698084]} },
{ "type": "Feature", "properties": {"name":"Markham_Moor","postcode":"DN22 0QU","URL":"http://motorwayservices.uk/Markham_Moor"}, "geometry": { "type": "Point", "coordinates": [-0.924971, 53.256809]} },
{ "type": "Feature", "properties": {"name":"Markham_Vale","postcode":"S44 5HS","URL":"http://motorwayservices.uk/Markham_Vale"}, "geometry": { "type": "Point", "coordinates": [-1.328667, 53.242369]} },
{ "type": "Feature", "properties": {"name":"Marston_Moretaine","postcode":"MK43 0PP","URL":"http://motorwayservices.uk/Marston_Moretaine"}, "geometry": { "type": "Point", "coordinates": [-0.548531, 52.047208]} },
{ "type": "Feature", "properties": {"name":"Martlesham_Heath","postcode":"IP5 3RA","URL":"http://motorwayservices.uk/Martlesham_Heath"}, "geometry": { "type": "Point", "coordinates": [1.27598, 52.065514]} },
{ "type": "Feature", "properties": {"name":"Medway","postcode":"ME8 8PQ","URL":"http://motorwayservices.uk/Medway"}, "geometry": { "type": "Point", "coordinates": [0.608165, 51.341571]} },
{ "type": "Feature", "properties": {"name":"Membury","postcode":"RG17 7TZ","URL":"http://motorwayservices.uk/Membury"}, "geometry": { "type": "Point", "coordinates": [-1.557179, 51.483486]} },
{ "type": "Feature", "properties": {"name":"Michaelwood","postcode":"GL11 6DD","URL":"http://motorwayservices.uk/Michaelwood"}, "geometry": { "type": "Point", "coordinates": [-2.420144, 51.666641]} },
{ "type": "Feature", "properties": {"name":"Middlewich","postcode":"CW10 0JB","URL":"http://motorwayservices.uk/Middlewich"}, "geometry": { "type": "Point", "coordinates": [-2.432264, 53.195137]} },
{ "type": "Feature", "properties": {"name":"Mile_End","postcode":"SY11 4JA","URL":"http://motorwayservices.uk/Mile_End"}, "geometry": { "type": "Point", "coordinates": [-3.026558, 52.849412]} },
{ "type": "Feature", "properties": {"name":"Milford","postcode":"IP28 6AS","URL":"http://motorwayservices.uk/Milford"}, "geometry": { "type": "Point", "coordinates": [0.531698, 52.335564]} },
{ "type": "Feature", "properties": {"name":"Milton_Heights","postcode":"OX14 4TX","URL":"http://motorwayservices.uk/Milton_Heights"}, "geometry": { "type": "Point", "coordinates": [-1.300193, 51.618762]} },
{ "type": "Feature", "properties": {"name":"Milton_Keynes","postcode":"MK17 9DN","URL":"http://motorwayservices.uk/Milton_Keynes"}, "geometry": { "type": "Point", "coordinates": [-0.699304, 51.991784]} },
{ "type": "Feature", "properties": {"name":"Minster","postcode":"CT12 4AY","URL":"http://motorwayservices.uk/Minster"}, "geometry": { "type": "Point", "coordinates": [1.318059, 51.343242]} },
{ "type": "Feature", "properties": {"name":"Monktonhall","postcode":"EH21 8RE","URL":"http://motorwayservices.uk/Monktonhall"}, "geometry": { "type": "Point", "coordinates": [-3.06055, 55.926192]} },
{ "type": "Feature", "properties": {"name":"Monkton","postcode":"KA9 2RJ","URL":"http://motorwayservices.uk/Monkton"}, "geometry": { "type": "Point", "coordinates": [-4.600214, 55.517655]} },
{ "type": "Feature", "properties": {"name":"Monmouth","postcode":"NP25 4BG","URL":"http://motorwayservices.uk/Monmouth"}, "geometry": { "type": "Point", "coordinates": [-2.805068, 51.774606]} },
{ "type": "Feature", "properties": {"name":"Moor_Farm","postcode":"NE23 7QA","URL":"http://motorwayservices.uk/Moor_Farm"}, "geometry": { "type": "Point", "coordinates": [-1.580914, 55.06464]} },
{ "type": "Feature", "properties": {"name":"Morcott","postcode":"LE15 9DL","URL":"http://motorwayservices.uk/Morcott"}, "geometry": { "type": "Point", "coordinates": [-0.64122, 52.593049]} },
{ "type": "Feature", "properties": {"name":"Moulton","postcode":"NN3 7TP","URL":"http://motorwayservices.uk/Moulton"}, "geometry": { "type": "Point", "coordinates": [-0.840578, 52.28692]} },
{ "type": "Feature", "properties": {"name":"Nene_Valley","postcode":"NN3 5LU","URL":"http://motorwayservices.uk/Nene_Valley"}, "geometry": { "type": "Point", "coordinates": [-0.794367, 52.254446]} },
{ "type": "Feature", "properties": {"name":"Nesscliffe","postcode":"SY4 1BZ","URL":"http://motorwayservices.uk/Nesscliffe"}, "geometry": { "type": "Point", "coordinates": [-2.922936, 52.771548]} },
{ "type": "Feature", "properties": {"name":"Newark","postcode":"NG24 3UG","URL":"http://motorwayservices.uk/Newark"}, "geometry": { "type": "Point", "coordinates": [-0.778455, 53.048585]} },
{ "type": "Feature", "properties": {"name":"Newby_Bridge","postcode":"LA12 8ND","URL":"http://motorwayservices.uk/Newby_Bridge"}, "geometry": { "type": "Point", "coordinates": [-2.965746, 54.264779]} },
{ "type": "Feature", "properties": {"name":"New_Fox","postcode":"NG33 5LN","URL":"http://motorwayservices.uk/New_Fox"}, "geometry": { "type": "Point", "coordinates": [-0.610642, 52.765769]} },
{ "type": "Feature", "properties": {"name":"Newmarket","postcode":"CB8 0XG","URL":"http://motorwayservices.uk/Newmarket"}, "geometry": { "type": "Point", "coordinates": [0.364271, 52.249489]} },
{ "type": "Feature", "properties": {"name":"Newport_Pagnell","postcode":"MK16 8DS","URL":"http://motorwayservices.uk/Newport_Pagnell"}, "geometry": { "type": "Point", "coordinates": [-0.749005, 52.08315]} },
{ "type": "Feature", "properties": {"name":"Newtonmore","postcode":"PH20 1BB","URL":"http://motorwayservices.uk/Newtonmore"}, "geometry": { "type": "Point", "coordinates": [-4.127937, 57.060472]} },
{ "type": "Feature", "properties": {"name":"Newton_Park","postcode":"DL1 3NL","URL":"http://motorwayservices.uk/Newton_Park"}, "geometry": { "type": "Point", "coordinates": [-1.563364, 54.584664]} },
{ "type": "Feature", "properties": {"name":"Newtown_Cross","postcode":"HR8 2TZ","URL":"http://motorwayservices.uk/Newtown_Cross"}, "geometry": { "type": "Point", "coordinates": [-2.5624, 52.101299]} },
{ "type": "Feature", "properties": {"name":"Northampton","postcode":"NN4 9QS","URL":"http://motorwayservices.uk/Northampton"}, "geometry": { "type": "Point", "coordinates": [-0.94455, 52.20919]} },
{ "type": "Feature", "properties": {"name":"North_Muskham","postcode":"NG23 6HT","URL":"http://motorwayservices.uk/North_Muskham"}, "geometry": { "type": "Point", "coordinates": [-0.810949, 53.128742]} },
{ "type": "Feature", "properties": {"name":"Northop_Hall","postcode":"CH7 6HF","URL":"http://motorwayservices.uk/Northop_Hall"}, "geometry": { "type": "Point", "coordinates": [-3.090195, 53.197934]} },
{ "type": "Feature", "properties": {"name":"Northside","postcode":"HR6 0PJ","URL":"http://motorwayservices.uk/Northside"}, "geometry": { "type": "Point", "coordinates": [-2.716367, 52.174295]} },
{ "type": "Feature", "properties": {"name":"Norton_Canes","postcode":"WS11 9UX","URL":"http://motorwayservices.uk/Norton_Canes"}, "geometry": { "type": "Point", "coordinates": [-1.967827, 52.665031]} },
{ "type": "Feature", "properties": {"name":"Nuneaton","postcode":"CV10 7DA","URL":"http://motorwayservices.uk/Nuneaton"}, "geometry": { "type": "Point", "coordinates": [-1.477009, 52.503944]} },
{ "type": "Feature", "properties": {"name":"Nunney_Catch","postcode":"BA11 4NX","URL":"http://motorwayservices.uk/Nunney_Catch"}, "geometry": { "type": "Point", "coordinates": [-2.376471, 51.200848]} },
{ "type": "Feature", "properties": {"name":"Oak","postcode":"CV5 9AN","URL":"http://motorwayservices.uk/Oak"}, "geometry": { "type": "Point", "coordinates": [-1.581168, 52.428201]} },
{ "type": "Feature", "properties": {"name":"Oldbury","postcode":"GL10 3SJ","URL":"http://motorwayservices.uk/Oldbury"}, "geometry": { "type": "Point", "coordinates": [-2.314336, 51.758808]} },
{ "type": "Feature", "properties": {"name":"Old_Inns","postcode":"G68 0BJ","URL":"http://motorwayservices.uk/Old_Inns"}, "geometry": { "type": "Point", "coordinates": [-3.969789, 55.967557]} },
{ "type": "Feature", "properties": {"name":"Ollerton","postcode":"NG22 9DT","URL":"http://motorwayservices.uk/Ollerton"}, "geometry": { "type": "Point", "coordinates": [-1.027289, 53.200111]} },
{ "type": "Feature", "properties": {"name":"Orme_View","postcode":"LL34 6UN","URL":"http://motorwayservices.uk/Orme_View"}, "geometry": { "type": "Point", "coordinates": [-3.89941, 53.280578]} },
{ "type": "Feature", "properties": {"name":"Orsett","postcode":"RM16 3BJ","URL":"http://motorwayservices.uk/Orsett"}, "geometry": { "type": "Point", "coordinates": [0.382546, 51.506028]} },
{ "type": "Feature", "properties": {"name":"Orwell","postcode":"IP10 0NZ","URL":"http://motorwayservices.uk/Orwell"}, "geometry": { "type": "Point", "coordinates": [1.186932, 52.0235]} },
{ "type": "Feature", "properties": {"name":"Oval","postcode":"NN7 3NA","URL":"http://motorwayservices.uk/Oval"}, "geometry": { "type": "Point", "coordinates": [-1.026901, 52.230619]} },
{ "type": "Feature", "properties": {"name":"Oversley_Mill","postcode":"B49 6PQ","URL":"http://motorwayservices.uk/Oversley_Mill"}, "geometry": { "type": "Point", "coordinates": [-1.876498, 52.204412]} },
{ "type": "Feature", "properties": {"name":"Oxford","postcode":"OX33 1LJ","URL":"http://motorwayservices.uk/Oxford"}, "geometry": { "type": "Point", "coordinates": [-1.097191, 51.738038]} },
{ "type": "Feature", "properties": {"name":"Parkway","postcode":"S2 1FF","URL":"http://motorwayservices.uk/Parkway"}, "geometry": { "type": "Point", "coordinates": [-1.417959, 53.371675]} },
{ "type": "Feature", "properties": {"name":"Partney","postcode":"PE23 4PF","URL":"http://motorwayservices.uk/Partney"}, "geometry": { "type": "Point", "coordinates": [0.107472, 53.191814]} },
{ "type": "Feature", "properties": {"name":"Peartree_Cross","postcode":"TQ13 7RB","URL":"http://motorwayservices.uk/Peartree_Cross"}, "geometry": { "type": "Point", "coordinates": [-3.76397, 50.509953]} },
{ "type": "Feature", "properties": {"name":"Peartree","postcode":"OX2 8JZ","URL":"http://motorwayservices.uk/Peartree"}, "geometry": { "type": "Point", "coordinates": [-1.283438, 51.795601]} },
{ "type": "Feature", "properties": {"name":"Pease_Pottage","postcode":"RH11 9YA","URL":"http://motorwayservices.uk/Pease_Pottage"}, "geometry": { "type": "Point", "coordinates": [-0.199939, 51.083316]} },
{ "type": "Feature", "properties": {"name":"Penhale","postcode":"TR9 6NA","URL":"http://motorwayservices.uk/Penhale"}, "geometry": { "type": "Point", "coordinates": [-4.943711, 50.37848]} },
{ "type": "Feature", "properties": {"name":"Penlan","postcode":"PL30 4HH","URL":"http://motorwayservices.uk/Penlan"}, "geometry": { "type": "Point", "coordinates": [-4.664863, 50.507818]} },
{ "type": "Feature", "properties": {"name":"Penrith","postcode":"CA11 9EH","URL":"http://motorwayservices.uk/Penrith"}, "geometry": { "type": "Point", "coordinates": [-2.764245, 54.661616]} },
{ "type": "Feature", "properties": {"name":"Peterborough","postcode":"PE7 3UQ","URL":"http://motorwayservices.uk/Peterborough"}, "geometry": { "type": "Point", "coordinates": [-0.320705, 52.531639]} },
{ "type": "Feature", "properties": {"name":"Petersfield","postcode":"GU32 3BS","URL":"http://motorwayservices.uk/Petersfield"}, "geometry": { "type": "Point", "coordinates": [-0.951553, 51.008611]} },
{ "type": "Feature", "properties": {"name":"Pevensey","postcode":"BN24 5JW","URL":"http://motorwayservices.uk/Pevensey"}, "geometry": { "type": "Point", "coordinates": [0.343121, 50.822577]} },
{ "type": "Feature", "properties": {"name":"Picket_Post","postcode":"BH24 3HN","URL":"http://motorwayservices.uk/Picket_Post"}, "geometry": { "type": "Point", "coordinates": [-1.730116, 50.853816]} },
{ "type": "Feature", "properties": {"name":"Pocklington","postcode":"YO42 1AD","URL":"http://motorwayservices.uk/Pocklington"}, "geometry": { "type": "Point", "coordinates": [-0.795361, 53.920833]} },
{ "type": "Feature", "properties": {"name":"Podimore","postcode":"BA22 8JG","URL":"http://motorwayservices.uk/Podimore"}, "geometry": { "type": "Point", "coordinates": [-2.659909, 51.023092]} },
{ "type": "Feature", "properties": {"name":"Polegate","postcode":"BN26 6QL","URL":"http://motorwayservices.uk/Polegate"}, "geometry": { "type": "Point", "coordinates": [0.23684, 50.829093]} },
{ "type": "Feature", "properties": {"name":"Pont_Abraham","postcode":"SA4 0FU","URL":"http://motorwayservices.uk/Pont_Abraham"}, "geometry": { "type": "Point", "coordinates": [-4.065913, 51.747468]} },
{ "type": "Feature", "properties": {"name":"Popham","postcode":"SO21 3SP","URL":"http://motorwayservices.uk/Popham"}, "geometry": { "type": "Point", "coordinates": [-1.232428, 51.193088]} },
{ "type": "Feature", "properties": {"name":"Poppleton","postcode":"YO26 6QD","URL":"http://motorwayservices.uk/Poppleton"}, "geometry": { "type": "Point", "coordinates": [-1.142754, 53.972016]} },
{ "type": "Feature", "properties": {"name":"Prizet","postcode":"LA8 8AA","URL":"http://motorwayservices.uk/Prizet"}, "geometry": { "type": "Point", "coordinates": [-2.75948, 54.297604]} },
{ "type": "Feature", "properties": {"name":"Pyecombe_(North)","postcode":"BN45 7ED","URL":"http://motorwayservices.uk/Pyecombe_(North)"}, "geometry": { "type": "Point", "coordinates": [-0.174491, 50.901124]} },
{ "type": "Feature", "properties": {"name":"Pyecombe_(South)","postcode":"BN45 7FJ","URL":"http://motorwayservices.uk/Pyecombe_(South)"}, "geometry": { "type": "Point", "coordinates": [-0.164141, 50.886923]} },
{ "type": "Feature", "properties": {"name":"Queenborough","postcode":"ME12 3EW","URL":"http://motorwayservices.uk/Queenborough"}, "geometry": { "type": "Point", "coordinates": [0.759276, 51.41567]} },
{ "type": "Feature", "properties": {"name":"Ram_Jam","postcode":"LE15 7QX","URL":"http://motorwayservices.uk/Ram_Jam"}, "geometry": { "type": "Point", "coordinates": [-0.600104, 52.732462]} },
{ "type": "Feature", "properties": {"name":"Raunds","postcode":"NN9 6EQ","URL":"http://motorwayservices.uk/Raunds"}, "geometry": { "type": "Point", "coordinates": [-0.54626, 52.352247]} },
{ "type": "Feature", "properties": {"name":"Reading","postcode":"RG30 3UQ","URL":"http://motorwayservices.uk/Reading"}, "geometry": { "type": "Point", "coordinates": [-1.036664, 51.423594]} },
{ "type": "Feature", "properties": {"name":"Red_Lion_Truckstop","postcode":"NN7 4DE","URL":"http://motorwayservices.uk/Red_Lion_Truckstop"}, "geometry": { "type": "Point", "coordinates": [-1.004718, 52.23198]} },
{ "type": "Feature", "properties": {"name":"Red_Post","postcode":"DT11 9EX","URL":"http://motorwayservices.uk/Red_Post"}, "geometry": { "type": "Point", "coordinates": [-2.153353, 50.775143]} },
{ "type": "Feature", "properties": {"name":"Redwings","postcode":"PE28 5XP","URL":"http://motorwayservices.uk/Redwings"}, "geometry": { "type": "Point", "coordinates": [-0.262807, 52.409442]} },
{ "type": "Feature", "properties": {"name":"Rheged","postcode":"CA11 0DQ","URL":"http://motorwayservices.uk/Rheged"}, "geometry": { "type": "Point", "coordinates": [-2.781083, 54.647418]} },
{ "type": "Feature", "properties": {"name":"Rhostyllen","postcode":"LL14 4EJ","URL":"http://motorwayservices.uk/Rhostyllen"}, "geometry": { "type": "Point", "coordinates": [-3.029416, 53.027758]} },
{ "type": "Feature", "properties": {"name":"Richborough","postcode":"CT13 9NL","URL":"http://motorwayservices.uk/Richborough"}, "geometry": { "type": "Point", "coordinates": [1.348697, 51.310178]} },
{ "type": "Feature", "properties": {"name":"Rising_Bridge","postcode":"BB5 2SB","URL":"http://motorwayservices.uk/Rising_Bridge"}, "geometry": { "type": "Point", "coordinates": [-2.332514, 53.726195]} },
{ "type": "Feature", "properties": {"name":"Rivington","postcode":"BL6 5UZ","URL":"http://motorwayservices.uk/Rivington"}, "geometry": { "type": "Point", "coordinates": [-2.573013, 53.600516]} },
{ "type": "Feature", "properties": {"name":"Ross_Spur","postcode":"HR9 7QJ","URL":"http://motorwayservices.uk/Ross_Spur"}, "geometry": { "type": "Point", "coordinates": [-2.568111, 51.927802]} },
{ "type": "Feature", "properties": {"name":"Rothwell","postcode":"NN14 1SS","URL":"http://motorwayservices.uk/Rothwell"}, "geometry": { "type": "Point", "coordinates": [-0.790084, 52.414473]} },
{ "type": "Feature", "properties": {"name":"Rothwell_Truckstop","postcode":"NN14 6AA","URL":"http://motorwayservices.uk/Rothwell_Truckstop"}, "geometry": { "type": "Point", "coordinates": [-0.813049, 52.412899]} },
{ "type": "Feature", "properties": {"name":"Roundswell","postcode":"EX31 3RZ","URL":"http://motorwayservices.uk/Roundswell"}, "geometry": { "type": "Point", "coordinates": [-4.083878, 51.06296]} },
{ "type": "Feature", "properties": {"name":"Route_74_Truckstop","postcode":"ML11 0FA","URL":"http://motorwayservices.uk/Route_74_Truckstop"}, "geometry": { "type": "Point", "coordinates": [-3.892995, 55.648703]} },
{ "type": "Feature", "properties": {"name":"Rowborough","postcode":"GL56 9RE","URL":"http://motorwayservices.uk/Rowborough"}, "geometry": { "type": "Point", "coordinates": [-1.664999, 52.050051]} },
{ "type": "Feature", "properties": {"name":"Rownhams","postcode":"SO16 8AP","URL":"http://motorwayservices.uk/Rownhams"}, "geometry": { "type": "Point", "coordinates": [-1.452068, 50.952732]} },
{ "type": "Feature", "properties": {"name":"Ruabon","postcode":"LL14 6YY","URL":"http://motorwayservices.uk/Ruabon"}, "geometry": { "type": "Point", "coordinates": [-3.031198, 52.993689]} },
{ "type": "Feature", "properties": {"name":"Rufus_Stone","postcode":"SO43 7GN","URL":"http://motorwayservices.uk/Rufus_Stone"}, "geometry": { "type": "Point", "coordinates": [-1.626655, 50.90585]} },
{ "type": "Feature", "properties": {"name":"Rugby","postcode":"CV23 0EZ","URL":"http://motorwayservices.uk/Rugby"}, "geometry": { "type": "Point", "coordinates": [-1.250053, 52.410771]} },
{ "type": "Feature", "properties": {"name":"Rugby_Truckstop","postcode":"CV23 0AE","URL":"http://motorwayservices.uk/Rugby_Truckstop"}, "geometry": { "type": "Point", "coordinates": [-1.188805, 52.381895]} },
{ "type": "Feature", "properties": {"name":"Rushden","postcode":"NN10 6AP","URL":"http://motorwayservices.uk/Rushden"}, "geometry": { "type": "Point", "coordinates": [-0.627428, 52.299101]} },
{ "type": "Feature", "properties": {"name":"Rustington","postcode":"BN17 6LE","URL":"http://motorwayservices.uk/Rustington"}, "geometry": { "type": "Point", "coordinates": [-0.526195, 50.820453]} },
{ "type": "Feature", "properties": {"name":"Saltash","postcode":"PL12 6LF","URL":"http://motorwayservices.uk/Saltash"}, "geometry": { "type": "Point", "coordinates": [-4.233786, 50.41779]} },
{ "type": "Feature", "properties": {"name":"Sandbach","postcode":"CW11 2FZ","URL":"http://motorwayservices.uk/Sandbach"}, "geometry": { "type": "Point", "coordinates": [-2.335809, 53.139358]} },
{ "type": "Feature", "properties": {"name":"Sarn_Park","postcode":"CF32 9SY","URL":"http://motorwayservices.uk/Sarn_Park"}, "geometry": { "type": "Point", "coordinates": [-3.576388, 51.534969]} },
{ "type": "Feature", "properties": {"name":"Saughall","postcode":"CH1 6JS","URL":"http://motorwayservices.uk/Saughall"}, "geometry": { "type": "Point", "coordinates": [-2.942376, 53.232995]} },
{ "type": "Feature", "properties": {"name":"Scotch_Corner","postcode":"DL10 6PQ","URL":"http://motorwayservices.uk/Scotch_Corner"}, "geometry": { "type": "Point", "coordinates": [-1.666329, 54.443985]} },
{ "type": "Feature", "properties": {"name":"Seaton_Burn","postcode":"NE13 6EP","URL":"http://motorwayservices.uk/Seaton_Burn"}, "geometry": { "type": "Point", "coordinates": [-1.627688, 55.059013]} },
{ "type": "Feature", "properties": {"name":"Sedbury","postcode":"DL10 5LP","URL":"http://motorwayservices.uk/Sedbury"}, "geometry": { "type": "Point", "coordinates": [-1.679709, 54.442628]} },
{ "type": "Feature", "properties": {"name":"Sedgefield","postcode":"TS21 2JX","URL":"http://motorwayservices.uk/Sedgefield"}, "geometry": { "type": "Point", "coordinates": [-1.43987, 54.648295]} },
{ "type": "Feature", "properties": {"name":"Sedgemoor_(North)","postcode":"BS24 0JL","URL":"http://motorwayservices.uk/Sedgemoor_(North)"}, "geometry": { "type": "Point", "coordinates": [-2.924042, 51.268829]} },
{ "type": "Feature", "properties": {"name":"Sedgemoor_(South)","postcode":"BS26 2UF","URL":"http://motorwayservices.uk/Sedgemoor_(South)"}, "geometry": { "type": "Point", "coordinates": [-2.919431, 51.269063]} },
{ "type": "Feature", "properties": {"name":"Seven_Bridges","postcode":"SN6 6JR","URL":"http://motorwayservices.uk/Seven_Bridges"}, "geometry": { "type": "Point", "coordinates": [-1.837798, 51.638225]} },
{ "type": "Feature", "properties": {"name":"Severn_View","postcode":"BS35 4BH","URL":"http://motorwayservices.uk/Severn_View"}, "geometry": { "type": "Point", "coordinates": [-2.62125, 51.603826]} },
{ "type": "Feature", "properties": {"name":"Shefford","postcode":"SG17 5LH","URL":"http://motorwayservices.uk/Shefford"}, "geometry": { "type": "Point", "coordinates": [-0.33628, 52.030223]} },
{ "type": "Feature", "properties": {"name":"Shooters_Hill","postcode":"SE3 8UQ","URL":"http://motorwayservices.uk/Shooters_Hill"}, "geometry": { "type": "Point", "coordinates": [0.027033, 51.475411]} },
{ "type": "Feature", "properties": {"name":"Shrewsbury","postcode":"SY3 0DA","URL":"http://motorwayservices.uk/Shrewsbury"}, "geometry": { "type": "Point", "coordinates": [-2.760901, 52.681916]} },
{ "type": "Feature", "properties": {"name":"Sixfields","postcode":"NN5 4EG","URL":"http://motorwayservices.uk/Sixfields"}, "geometry": { "type": "Point", "coordinates": [-0.937771, 52.234526]} },
{ "type": "Feature", "properties": {"name":"Skewen","postcode":"SA10 7DR","URL":"http://motorwayservices.uk/Skewen"}, "geometry": { "type": "Point", "coordinates": [-3.832933, 51.658153]} },
{ "type": "Feature", "properties": {"name":"Skiach","postcode":"IV16 9XJ","URL":"http://motorwayservices.uk/Skiach"}, "geometry": { "type": "Point", "coordinates": [-4.304279, 57.675799]} },
{ "type": "Feature", "properties": {"name":"Skipbridge","postcode":"YO26 8EQ","URL":"http://motorwayservices.uk/Skipbridge"}, "geometry": { "type": "Point", "coordinates": [-1.273614, 53.998574]} },
{ "type": "Feature", "properties": {"name":"Sleaford","postcode":"NG34 8NP","URL":"http://motorwayservices.uk/Sleaford"}, "geometry": { "type": "Point", "coordinates": [-0.423458, 53.010934]} },
{ "type": "Feature", "properties": {"name":"Smithaleigh","postcode":"PL7 5AX","URL":"http://motorwayservices.uk/Smithaleigh"}, "geometry": { "type": "Point", "coordinates": [-3.985793, 50.382299]} },
{ "type": "Feature", "properties": {"name":"Snetterton","postcode":"NR16 2JU","URL":"http://motorwayservices.uk/Snetterton"}, "geometry": { "type": "Point", "coordinates": [0.954114, 52.471606]} },
{ "type": "Feature", "properties": {"name":"Solstice","postcode":"SP4 7SQ","URL":"http://motorwayservices.uk/Solstice"}, "geometry": { "type": "Point", "coordinates": [-1.758978, 51.177468]} },
{ "type": "Feature", "properties": {"name":"Sourton_Cross","postcode":"EX20 4LY","URL":"http://motorwayservices.uk/Sourton_Cross"}, "geometry": { "type": "Point", "coordinates": [-4.059736, 50.707756]} },
{ "type": "Feature", "properties": {"name":"South_Cave","postcode":"HU15 2DA","URL":"http://motorwayservices.uk/South_Cave"}, "geometry": { "type": "Point", "coordinates": [-0.593325, 53.759691]} },
{ "type": "Feature", "properties": {"name":"South_Mimms","postcode":"EN6 3QQ","URL":"http://motorwayservices.uk/South_Mimms"}, "geometry": { "type": "Point", "coordinates": [-0.221891, 51.687531]} },
{ "type": "Feature", "properties": {"name":"Southwaite","postcode":"CA4 0NT","URL":"http://motorwayservices.uk/Southwaite"}, "geometry": { "type": "Point", "coordinates": [-2.869965, 54.798923]} },
{ "type": "Feature", "properties": {"name":"South_Weald","postcode":"CM14 5NA","URL":"http://motorwayservices.uk/South_Weald"}, "geometry": { "type": "Point", "coordinates": [0.266195, 51.609418]} },
{ "type": "Feature", "properties": {"name":"Spaceways","postcode":"YO26 6RB","URL":"http://motorwayservices.uk/Spaceways"}, "geometry": { "type": "Point", "coordinates": [-1.13266, 53.977948]} },
{ "type": "Feature", "properties": {"name":"Spalding","postcode":"PE12 6FY","URL":"http://motorwayservices.uk/Spalding"}, "geometry": { "type": "Point", "coordinates": [-0.158629, 52.760909]} },
{ "type": "Feature", "properties": {"name":"Spaldwick","postcode":"PE28 0TD","URL":"http://motorwayservices.uk/Spaldwick"}, "geometry": { "type": "Point", "coordinates": [-0.341607, 52.341316]} },
{ "type": "Feature", "properties": {"name":"Springfields","postcode":"PE12 6JP","URL":"http://motorwayservices.uk/Springfields"}, "geometry": { "type": "Point", "coordinates": [-0.118411, 52.799982]} },
{ "type": "Feature", "properties": {"name":"Spur_End","postcode":"BH7 7DP","URL":"http://motorwayservices.uk/Spur_End"}, "geometry": { "type": "Point", "coordinates": [-1.82524, 50.747381]} },
{ "type": "Feature", "properties": {"name":"Stafford_(North)","postcode":"ST15 0EU","URL":"http://motorwayservices.uk/Stafford_(North)"}, "geometry": { "type": "Point", "coordinates": [-2.170513, 52.884344]} },
{ "type": "Feature", "properties": {"name":"Stafford_(South)","postcode":"ST15 0XE","URL":"http://motorwayservices.uk/Stafford_(South)"}, "geometry": { "type": "Point", "coordinates": [-2.1612, 52.873195]} },
{ "type": "Feature", "properties": {"name":"Stannington","postcode":"NE61 6DR","URL":"http://motorwayservices.uk/Stannington"}, "geometry": { "type": "Point", "coordinates": [-1.67159, 55.125448]} },
{ "type": "Feature", "properties": {"name":"Stansted","postcode":"CM24 1PY","URL":"http://motorwayservices.uk/Stansted"}, "geometry": { "type": "Point", "coordinates": [0.247784, 51.875575]} },
{ "type": "Feature", "properties": {"name":"St_Clears","postcode":"SA33 4JW","URL":"http://motorwayservices.uk/St_Clears"}, "geometry": { "type": "Point", "coordinates": [-4.503711, 51.817994]} },
{ "type": "Feature", "properties": {"name":"Stibbington","postcode":"PE8 6LR","URL":"http://motorwayservices.uk/Stibbington"}, "geometry": { "type": "Point", "coordinates": [-0.39044, 52.568346]} },
{ "type": "Feature", "properties": {"name":"Stirchley","postcode":"TF3 1QU","URL":"http://motorwayservices.uk/Stirchley"}, "geometry": { "type": "Point", "coordinates": [-2.428922, 52.654622]} },
{ "type": "Feature", "properties": {"name":"Stirling","postcode":"FK7 8EU","URL":"http://motorwayservices.uk/Stirling"}, "geometry": { "type": "Point", "coordinates": [-3.922476, 56.075747]} },
{ "type": "Feature", "properties": {"name":"St_Kew","postcode":"PL30 3ED","URL":"http://motorwayservices.uk/St_Kew"}, "geometry": { "type": "Point", "coordinates": [-4.779445, 50.545606]} },
{ "type": "Feature", "properties": {"name":"St_Leonards","postcode":"BH24 2NR","URL":"http://motorwayservices.uk/St_Leonards"}, "geometry": { "type": "Point", "coordinates": [-1.838707, 50.82935]} },
{ "type": "Feature", "properties": {"name":"Stockbridge","postcode":"PO19 8FH","URL":"http://motorwayservices.uk/Stockbridge"}, "geometry": { "type": "Point", "coordinates": [-0.788055, 50.828718]} },
{ "type": "Feature", "properties": {"name":"Stonebridge","postcode":"CV3 6RQ","URL":"http://motorwayservices.uk/Stonebridge"}, "geometry": { "type": "Point", "coordinates": [-1.515344, 52.379037]} },
{ "type": "Feature", "properties": {"name":"Stonecross","postcode":"PE38 0AD","URL":"http://motorwayservices.uk/Stonecross"}, "geometry": { "type": "Point", "coordinates": [0.397347, 52.598992]} },
{ "type": "Feature", "properties": {"name":"Stracathro","postcode":"DD9 7QA","URL":"http://motorwayservices.uk/Stracathro"}, "geometry": { "type": "Point", "coordinates": [-2.61372, 56.77494]} },
{ "type": "Feature", "properties": {"name":"Strathbogie","postcode":"AB54 6JD","URL":"http://motorwayservices.uk/Strathbogie"}, "geometry": { "type": "Point", "coordinates": [-2.766175, 57.43965]} },
{ "type": "Feature", "properties": {"name":"Strensham","postcode":"WR8 0BZ","URL":"http://motorwayservices.uk/Strensham"}, "geometry": { "type": "Point", "coordinates": [-2.157269, 52.064651]} },
{ "type": "Feature", "properties": {"name":"Sutterton","postcode":"PE20 2LG","URL":"http://motorwayservices.uk/Sutterton"}, "geometry": { "type": "Point", "coordinates": [-0.080449, 52.88846]} },
{ "type": "Feature", "properties": {"name":"Sutton_Scotney","postcode":"SO21 3JY","URL":"http://motorwayservices.uk/Sutton_Scotney"}, "geometry": { "type": "Point", "coordinates": [-1.344286, 51.156323]} },
{ "type": "Feature", "properties": {"name":"Swaffham","postcode":"PE37 7TZ","URL":"http://motorwayservices.uk/Swaffham"}, "geometry": { "type": "Point", "coordinates": [0.7239, 52.652542]} },
{ "type": "Feature", "properties": {"name":"Swallowfield","postcode":"RG7 1LZ","URL":"http://motorwayservices.uk/Swallowfield"}, "geometry": { "type": "Point", "coordinates": [-0.984636, 51.397824]} },
{ "type": "Feature", "properties": {"name":"Swanley","postcode":"DA14 5JA","URL":"http://motorwayservices.uk/Swanley"}, "geometry": { "type": "Point", "coordinates": [0.144023, 51.409668]} },
{ "type": "Feature", "properties": {"name":"Swansea_West","postcode":"SA4 9GT","URL":"http://motorwayservices.uk/Swansea_West"}, "geometry": { "type": "Point", "coordinates": [-3.995297, 51.679241]} },
{ "type": "Feature", "properties": {"name":"Symonds_Yat","postcode":"HR9 6DP","URL":"http://motorwayservices.uk/Symonds_Yat"}, "geometry": { "type": "Point", "coordinates": [-2.664442, 51.851709]} },
{ "type": "Feature", "properties": {"name":"Talke","postcode":"ST7 1UP","URL":"http://motorwayservices.uk/Talke"}, "geometry": { "type": "Point", "coordinates": [-2.25048, 53.061759]} },
{ "type": "Feature", "properties": {"name":"Tamworth","postcode":"B77 5PS","URL":"http://motorwayservices.uk/Tamworth"}, "geometry": { "type": "Point", "coordinates": [-1.64011, 52.607476]} },
{ "type": "Feature", "properties": {"name":"Taunton_Deane","postcode":"TA3 7PF","URL":"http://motorwayservices.uk/Taunton_Deane"}, "geometry": { "type": "Point", "coordinates": [-3.146758, 50.975507]} },
{ "type": "Feature", "properties": {"name":"Tebay","postcode":"CA10 3SB","URL":"http://motorwayservices.uk/Tebay"}, "geometry": { "type": "Point", "coordinates": [-2.609982, 54.449654]} },
{ "type": "Feature", "properties": {"name":"Teddington_Hands","postcode":"GL20 8NE","URL":"http://motorwayservices.uk/Teddington_Hands"}, "geometry": { "type": "Point", "coordinates": [-2.055863, 52.003435]} },
{ "type": "Feature", "properties": {"name":"Telegraph_Hill","postcode":"EX6 7XX","URL":"http://motorwayservices.uk/Telegraph_Hill"}, "geometry": { "type": "Point", "coordinates": [-3.547489, 50.648241]} },
{ "type": "Feature", "properties": {"name":"Telford","postcode":"TF11 8TG","URL":"http://motorwayservices.uk/Telford"}, "geometry": { "type": "Point", "coordinates": [-2.400242, 52.677301]} },
{ "type": "Feature", "properties": {"name":"Templepatrick","postcode":"BT36 4RN","URL":"http://motorwayservices.uk/Templepatrick"}, "geometry": { "type": "Point", "coordinates": [-6.023114, 54.695437]} },
{ "type": "Feature", "properties": {"name":"Thame","postcode":"OX9 3SB","URL":"http://motorwayservices.uk/Thame"}, "geometry": { "type": "Point", "coordinates": [-0.978808, 51.756842]} },
{ "type": "Feature", "properties": {"name":"Thanet_Way","postcode":"ME13 9EL","URL":"http://motorwayservices.uk/Thanet_Way"}, "geometry": { "type": "Point", "coordinates": [0.98743, 51.325414]} },
{ "type": "Feature", "properties": {"name":"The_Buck","postcode":"SP11 6NJ","URL":"http://motorwayservices.uk/The_Buck"}, "geometry": { "type": "Point", "coordinates": [-1.411655, 51.188531]} },
{ "type": "Feature", "properties": {"name":"Thetford","postcode":"IP24 1QN","URL":"http://motorwayservices.uk/Thetford"}, "geometry": { "type": "Point", "coordinates": [0.727361, 52.422879]} },
{ "type": "Feature", "properties": {"name":"Thickthorn","postcode":"NR9 3AU","URL":"http://motorwayservices.uk/Thickthorn"}, "geometry": { "type": "Point", "coordinates": [1.219121, 52.604064]} },
{ "type": "Feature", "properties": {"name":"Thirsk","postcode":"YO7 3AA","URL":"http://motorwayservices.uk/Thirsk"}, "geometry": { "type": "Point", "coordinates": [-1.329105, 54.228492]} },
{ "type": "Feature", "properties": {"name":"Thorpe_on_the_Hill","postcode":"LN6 9AJ","URL":"http://motorwayservices.uk/Thorpe_on_the_Hill"}, "geometry": { "type": "Point", "coordinates": [-0.626411, 53.17753]} },
{ "type": "Feature", "properties": {"name":"Thrapston","postcode":"NN14 4UR","URL":"http://motorwayservices.uk/Thrapston"}, "geometry": { "type": "Point", "coordinates": [-0.52543, 52.39178]} },
{ "type": "Feature", "properties": {"name":"Thrussington","postcode":"LE7 4TF","URL":"http://motorwayservices.uk/Thrussington"}, "geometry": { "type": "Point", "coordinates": [-1.061412, 52.748651]} },
{ "type": "Feature", "properties": {"name":"Thurrock","postcode":"RM16 3BG","URL":"http://motorwayservices.uk/Thurrock"}, "geometry": { "type": "Point", "coordinates": [0.272254, 51.492281]} },
{ "type": "Feature", "properties": {"name":"Tibshelf","postcode":"DE55 5TZ","URL":"http://motorwayservices.uk/Tibshelf"}, "geometry": { "type": "Point", "coordinates": [-1.332002, 53.133917]} },
{ "type": "Feature", "properties": {"name":"Tickled_Trout","postcode":"PR5 0UJ","URL":"http://motorwayservices.uk/Tickled_Trout"}, "geometry": { "type": "Point", "coordinates": [-2.641079, 53.765349]} },
{ "type": "Feature", "properties": {"name":"Tiverton","postcode":"EX16 7HD","URL":"http://motorwayservices.uk/Tiverton"}, "geometry": { "type": "Point", "coordinates": [-3.354939, 50.916808]} },
{ "type": "Feature", "properties": {"name":"Toddington","postcode":"LU5 6HR","URL":"http://motorwayservices.uk/Toddington"}, "geometry": { "type": "Point", "coordinates": [-0.503233, 51.947096]} },
{ "type": "Feature", "properties": {"name":"Todhills","postcode":"CA6 4HA","URL":"http://motorwayservices.uk/Todhills"}, "geometry": { "type": "Point", "coordinates": [-2.979008, 54.950102]} },
{ "type": "Feature", "properties": {"name":"Tollgate","postcode":"DA11 7NP","URL":"http://motorwayservices.uk/Tollgate"}, "geometry": { "type": "Point", "coordinates": [0.361227, 51.417255]} },
{ "type": "Feature", "properties": {"name":"Tot_Hill_(A14)","postcode":"IP14 3QQ","URL":"http://motorwayservices.uk/Tot_Hill_(A14)"}, "geometry": { "type": "Point", "coordinates": [0.9797, 52.205946]} },
{ "type": "Feature", "properties": {"name":"Tot_Hill_(A34)","postcode":"RG20 9BX","URL":"http://motorwayservices.uk/Tot_Hill_(A34)"}, "geometry": { "type": "Point", "coordinates": [-1.342779, 51.34853]} },
{ "type": "Feature", "properties": {"name":"Towcester","postcode":"NN12 6TQ","URL":"http://motorwayservices.uk/Towcester"}, "geometry": { "type": "Point", "coordinates": [-1.004552, 52.126718]} },
{ "type": "Feature", "properties": {"name":"Townsend","postcode":"BA22 8PF","URL":"http://motorwayservices.uk/Townsend"}, "geometry": { "type": "Point", "coordinates": [-2.713989, 50.985032]} },
{ "type": "Feature", "properties": {"name":"Trewint","postcode":"PL15 7TF","URL":"http://motorwayservices.uk/Trewint"}, "geometry": { "type": "Point", "coordinates": [-4.524064, 50.59441]} },
{ "type": "Feature", "properties": {"name":"Trowell","postcode":"NG9 3PL","URL":"http://motorwayservices.uk/Trowell"}, "geometry": { "type": "Point", "coordinates": [-1.268038, 52.961567]} },
{ "type": "Feature", "properties": {"name":"Tunbridge_Wells","postcode":"TN12 7HE","URL":"http://motorwayservices.uk/Tunbridge_Wells"}, "geometry": { "type": "Point", "coordinates": [0.351984, 51.134975]} },
{ "type": "Feature", "properties": {"name":"Uttoxeter","postcode":"ST14 5AA","URL":"http://motorwayservices.uk/Uttoxeter"}, "geometry": { "type": "Point", "coordinates": [-1.858719, 52.908279]} },
{ "type": "Feature", "properties": {"name":"Vale","postcode":"WR11 7QP","URL":"http://motorwayservices.uk/Vale"}, "geometry": { "type": "Point", "coordinates": [-2.002117, 52.03016]} },
{ "type": "Feature", "properties": {"name":"Warminster","postcode":"BA12 7RU","URL":"http://motorwayservices.uk/Warminster"}, "geometry": { "type": "Point", "coordinates": [-2.199957, 51.21786]} },
{ "type": "Feature", "properties": {"name":"Warwick","postcode":"CV35 0AA","URL":"http://motorwayservices.uk/Warwick"}, "geometry": { "type": "Point", "coordinates": [-1.515692, 52.219735]} },
{ "type": "Feature", "properties": {"name":"Washington","postcode":"DH3 2SJ","URL":"http://motorwayservices.uk/Washington"}, "geometry": { "type": "Point", "coordinates": [-1.557512, 54.890285]} },
{ "type": "Feature", "properties": {"name":"Watford_Gap","postcode":"NN6 7UZ","URL":"http://motorwayservices.uk/Watford_Gap"}, "geometry": { "type": "Point", "coordinates": [-1.123064, 52.307442]} },
{ "type": "Feature", "properties": {"name":"Weeley","postcode":"CO16 9AD","URL":"http://motorwayservices.uk/Weeley"}, "geometry": { "type": "Point", "coordinates": [1.101988, 51.858779]} },
{ "type": "Feature", "properties": {"name":"Wellingborough","postcode":"NN8 2DU","URL":"http://motorwayservices.uk/Wellingborough"}, "geometry": { "type": "Point", "coordinates": [-0.674022, 52.288683]} },
{ "type": "Feature", "properties": {"name":"West_Cave","postcode":"HU15 1RZ","URL":"http://motorwayservices.uk/West_Cave"}, "geometry": { "type": "Point", "coordinates": [-0.66144, 53.768157]} },
{ "type": "Feature", "properties": {"name":"West_Wellow","postcode":"SO51 6GF","URL":"http://motorwayservices.uk/West_Wellow"}, "geometry": { "type": "Point", "coordinates": [-1.535655, 50.954982]} },
{ "type": "Feature", "properties": {"name":"Wetherby","postcode":"LS22 5GT","URL":"http://motorwayservices.uk/Wetherby"}, "geometry": { "type": "Point", "coordinates": [-1.368874, 53.947548]} },
{ "type": "Feature", "properties": {"name":"Weyhill","postcode":"SP11 8FH","URL":"http://motorwayservices.uk/Weyhill"}, "geometry": { "type": "Point", "coordinates": [-1.535821, 51.213772]} },
{ "type": "Feature", "properties": {"name":"Wherstead","postcode":"IP2 8NQ","URL":"http://motorwayservices.uk/Wherstead"}, "geometry": { "type": "Point", "coordinates": [1.148573, 52.031158]} },
{ "type": "Feature", "properties": {"name":"Whiddon_Down","postcode":"EX20 2QT","URL":"http://motorwayservices.uk/Whiddon_Down"}, "geometry": { "type": "Point", "coordinates": [-3.852056, 50.719514]} },
{ "type": "Feature", "properties": {"name":"Whitchurch","postcode":"SY13 1JZ","URL":"http://motorwayservices.uk/Whitchurch"}, "geometry": { "type": "Point", "coordinates": [-2.70533, 52.966978]} },
{ "type": "Feature", "properties": {"name":"Whitehouse","postcode":"EX20 1QJ","URL":"http://motorwayservices.uk/Whitehouse"}, "geometry": { "type": "Point", "coordinates": [-3.959004, 50.739056]} },
{ "type": "Feature", "properties": {"name":"Whitemare_Pool","postcode":"NE10 8YB","URL":"http://motorwayservices.uk/Whitemare_Pool"}, "geometry": { "type": "Point", "coordinates": [-1.515724, 54.946928]} },
{ "type": "Feature", "properties": {"name":"Whitley","postcode":"WA4 4EZ","URL":"http://motorwayservices.uk/Whitley"}, "geometry": { "type": "Point", "coordinates": [-2.592984, 53.293125]} },
{ "type": "Feature", "properties": {"name":"Whittlesford","postcode":"CB22 3HD","URL":"http://motorwayservices.uk/Whittlesford"}, "geometry": { "type": "Point", "coordinates": [0.176811, 52.104085]} },
{ "type": "Feature", "properties": {"name":"Willington","postcode":"DE65 6GY","URL":"http://motorwayservices.uk/Willington"}, "geometry": { "type": "Point", "coordinates": [-1.581075, 52.855343]} },
{ "type": "Feature", "properties": {"name":"Willoughby_Hedge","postcode":"BA12 6AQ","URL":"http://motorwayservices.uk/Willoughby_Hedge"}, "geometry": { "type": "Point", "coordinates": [-2.185914, 51.101392]} },
{ "type": "Feature", "properties": {"name":"Willowtree","postcode":"NE66 2HA","URL":"http://motorwayservices.uk/Willowtree"}, "geometry": { "type": "Point", "coordinates": [-1.691665, 55.401474]} },
{ "type": "Feature", "properties": {"name":"Winchester","postcode":"SO21 1PP","URL":"http://motorwayservices.uk/Winchester"}, "geometry": { "type": "Point", "coordinates": [-1.254577, 51.115258]} },
{ "type": "Feature", "properties": {"name":"Winning_Post","postcode":"EX6 7XS","URL":"http://motorwayservices.uk/Winning_Post"}, "geometry": { "type": "Point", "coordinates": [-3.562857, 50.640317]} },
{ "type": "Feature", "properties": {"name":"Winthorpe","postcode":"NG24 2NY","URL":"http://motorwayservices.uk/Winthorpe"}, "geometry": { "type": "Point", "coordinates": [-0.769253, 53.097736]} },
{ "type": "Feature", "properties": {"name":"Wisbech","postcode":"PE14 7BF","URL":"http://motorwayservices.uk/Wisbech"}, "geometry": { "type": "Point", "coordinates": [0.207283, 52.684773]} },
{ "type": "Feature", "properties": {"name":"Wisley","postcode":"GU23 6PT","URL":"http://motorwayservices.uk/Wisley"}, "geometry": { "type": "Point", "coordinates": [-0.489885, 51.293154]} },
{ "type": "Feature", "properties": {"name":"Witney","postcode":"OX28 4EJ","URL":"http://motorwayservices.uk/Witney"}, "geometry": { "type": "Point", "coordinates": [-1.492396, 51.777974]} },
{ "type": "Feature", "properties": {"name":"Wittering","postcode":"PE8 6HA","URL":"http://motorwayservices.uk/Wittering"}, "geometry": { "type": "Point", "coordinates": [-0.421717, 52.598401]} },
{ "type": "Feature", "properties": {"name":"Woodall","postcode":"S26 7XR","URL":"http://motorwayservices.uk/Woodall"}, "geometry": { "type": "Point", "coordinates": [-1.28137, 53.315191]} },
{ "type": "Feature", "properties": {"name":"Woodhouse","postcode":"TS14 6QU","URL":"http://motorwayservices.uk/Woodhouse"}, "geometry": { "type": "Point", "coordinates": [-1.075788, 54.535037]} },
{ "type": "Feature", "properties": {"name":"Woodside","postcode":"EX36 3QP","URL":"http://motorwayservices.uk/Woodside"}, "geometry": { "type": "Point", "coordinates": [-3.764034, 51.013302]} },
{ "type": "Feature", "properties": {"name":"Woolley_Edge","postcode":"WF4 4LQ","URL":"http://motorwayservices.uk/Woolley_Edge"}, "geometry": { "type": "Point", "coordinates": [-1.545422, 53.622277]} },
{ "type": "Feature", "properties": {"name":"Woolmer","postcode":"GU35 9QF","URL":"http://motorwayservices.uk/Woolmer"}, "geometry": { "type": "Point", "coordinates": [-0.866188, 51.108451]} },
{ "type": "Feature", "properties": {"name":"Worksop","postcode":"S80 3QD","URL":"http://motorwayservices.uk/Worksop"}, "geometry": { "type": "Point", "coordinates": [-1.139822, 53.303263]} },
{ "type": "Feature", "properties": {"name":"Worsted","postcode":"CB22 3AX","URL":"http://motorwayservices.uk/Worsted"}, "geometry": { "type": "Point", "coordinates": [0.230827, 52.145051]} },
{ "type": "Feature", "properties": {"name":"Wyboston","postcode":"MK44 3AA","URL":"http://motorwayservices.uk/Wyboston"}, "geometry": { "type": "Point", "coordinates": [-0.297943, 52.19456]} },
{ "type": "Feature", "properties": {"name":"Wynyard_Park","postcode":"TS22 5PZ","URL":"http://motorwayservices.uk/Wynyard_Park"}, "geometry": { "type": "Point", "coordinates": [-1.306915, 54.628629]} },
{ "type": "Feature", "properties": {"name":"Yarnton","postcode":"OX5 1PT","URL":"http://motorwayservices.uk/Yarnton"}, "geometry": { "type": "Point", "coordinates": [-1.308573, 51.810425]} }]
}