<?xml version="1.0" encoding="utf-8"?><gpx version="1.1" creator="Aspose.Gis - www.aspose.com"><wpt lat="51.645552" lon="-3.321808"><name>Abercynon</name><extensions><postcode>CF45 4YX</postcode><URL>http://motorwayservices.uk/Abercynon</URL></extensions></wpt><wpt lat="55.507502" lon="-3.695989"><name>Abington</name><extensions><postcode>ML12 6RG</postcode><URL>http://motorwayservices.uk/Abington</URL></extensions></wpt><wpt lat="52.638237" lon="1.55067"><name>Acle</name><extensions><postcode>NR13 3BE</postcode><URL>http://motorwayservices.uk/Acle</URL></extensions></wpt><wpt lat="51.788056" lon="-1.366947"><name>Acre_Hill</name><extensions><postcode>OX29 4EN</postcode><URL>http://motorwayservices.uk/Acre_Hill</URL></extensions></wpt><wpt lat="55.564274" lon="-1.791249"><name>Adderstone</name><extensions><postcode>NE70 7JU</postcode><URL>http://motorwayservices.uk/Adderstone</URL></extensions></wpt><wpt lat="53.087453" lon="-1.394492"><name>Alfreton</name><extensions><postcode>DE55 1HJ</postcode><URL>http://motorwayservices.uk/Alfreton</URL></extensions></wpt><wpt lat="52.543923" lon="-0.331666"><name>Alwalton</name><extensions><postcode>PE7 3UJ</postcode><URL>http://motorwayservices.uk/Alwalton</URL></extensions></wpt><wpt lat="55.215885" lon="-3.416082"><name>Annandale_Water</name><extensions><postcode>DG11 1HD</postcode><URL>http://motorwayservices.uk/Annandale_Water</URL></extensions></wpt><wpt lat="52.672183" lon="-1.540577"><name>Appleby_Magna</name><extensions><postcode>DE12 7AP</postcode><URL>http://motorwayservices.uk/Appleby_Magna</URL></extensions></wpt><wpt lat="52.751413" lon="-1.448664"><name>Ashby-de-la-Zouch</name><extensions><postcode>LE65 1JP</postcode><URL>http://motorwayservices.uk/Ashby-de-la-Zouch</URL></extensions></wpt><wpt lat="51.124606" lon="0.897468"><name>Ashford</name><extensions><postcode>TN24 0GB</postcode><URL>http://motorwayservices.uk/Ashford</URL></extensions></wpt><wpt lat="57.484275" lon="-2.855875"><name>Ashgrove</name><extensions><postcode>AB54 4TL</postcode><URL>http://motorwayservices.uk/Ashgrove</URL></extensions></wpt><wpt lat="50.940471" lon="-0.386249"><name>Ashington</name><extensions><postcode>RH20 3AT</postcode><URL>http://motorwayservices.uk/Ashington</URL></extensions></wpt><wpt lat="52.026804" lon="-0.215812"><name>Astwick</name><extensions><postcode>SG5 4BL</postcode><URL>http://motorwayservices.uk/Astwick</URL></extensions></wpt><wpt lat="52.531773" lon="1.051085"><name>Attleborough</name><extensions><postcode>NR17 2PU</postcode><URL>http://motorwayservices.uk/Attleborough</URL></extensions></wpt><wpt lat="52.014517" lon="-0.202486"><name>Baldock</name><extensions><postcode>SG7 5TR</postcode><URL>http://motorwayservices.uk/Baldock</URL></extensions></wpt><wpt lat="56.229968" lon="-3.901656"><name>Balhaldie</name><extensions><postcode>FK15 0NB</postcode><URL>http://motorwayservices.uk/Balhaldie</URL></extensions></wpt><wpt lat="56.654083" lon="-3.66938"><name>Ballinluig</name><extensions><postcode>PH9 0LG</postcode><URL>http://motorwayservices.uk/Ballinluig</URL></extensions></wpt><wpt lat="54.940272" lon="-6.328715"><name>Ballymena</name><extensions><postcode>BT44 9HA</postcode><URL>http://motorwayservices.uk/Ballymena</URL></extensions></wpt><wpt lat="53.206144" lon="-4.106535"><name>Bangor</name><extensions><postcode>LL57 4BG</postcode><URL>http://motorwayservices.uk/Bangor</URL></extensions></wpt><wpt lat="56.183364" lon="-3.143849"><name>Bankhead</name><extensions><postcode>KY7 6GH</postcode><URL>http://motorwayservices.uk/Bankhead</URL></extensions></wpt><wpt lat="54.367678" lon="-6.217684"><name>Barbican</name><extensions><postcode>BT32 4ET</postcode><URL>http://motorwayservices.uk/Barbican</URL></extensions></wpt><wpt lat="53.585669" lon="-0.416585"><name>Barnetby</name><extensions><postcode>DN20 0PA</postcode><URL>http://motorwayservices.uk/Barnetby</URL></extensions></wpt><wpt lat="53.625931" lon="-1.238125"><name>Barnsdale_Bar</name><extensions><postcode>WF8 3JF</postcode><URL>http://motorwayservices.uk/Barnsdale_Bar</URL></extensions></wpt><wpt lat="53.839998" lon="-2.394371"><name>Barrow</name><extensions><postcode>BB7 9WF</postcode><URL>http://motorwayservices.uk/Barrow</URL></extensions></wpt><wpt lat="53.068951" lon="-2.337201"><name>Barthomley</name><extensions><postcode>CW2 5PT</postcode><URL>http://motorwayservices.uk/Barthomley</URL></extensions></wpt><wpt lat="52.338456" lon="0.533537"><name>Barton_Mills</name><extensions><postcode>IP28 6AE</postcode><URL>http://motorwayservices.uk/Barton_Mills</URL></extensions></wpt><wpt lat="54.466893" lon="-1.663042"><name>Barton_Park</name><extensions><postcode>DL10 6NA</postcode><URL>http://motorwayservices.uk/Barton_Park</URL></extensions></wpt><wpt lat="51.180637" lon="-1.37802"><name>Barton_Stacey</name><extensions><postcode>SO21 3NF</postcode><URL>http://motorwayservices.uk/Barton_Stacey</URL></extensions></wpt><wpt lat="52.74786" lon="-2.717593"><name>Battlefield</name><extensions><postcode>SY4 3EQ</postcode><URL>http://motorwayservices.uk/Battlefield</URL></extensions></wpt><wpt lat="51.96072" lon="-1.20207"><name>Baynards_Green</name><extensions><postcode>OX27 7SG</postcode><URL>http://motorwayservices.uk/Baynards_Green</URL></extensions></wpt><wpt lat="52.147557" lon="1.079871"><name>Beacon_Hill</name><extensions><postcode>IP6 8LP</postcode><URL>http://motorwayservices.uk/Beacon_Hill</URL></extensions></wpt><wpt lat="53.766749" lon="-0.646571"><name>Beacon</name><extensions><postcode>HU15 1SA</postcode><URL>http://motorwayservices.uk/Beacon</URL></extensions></wpt><wpt lat="51.587846" lon="-0.628195"><name>Beaconsfield</name><extensions><postcode>HP9 2SE</postcode><URL>http://motorwayservices.uk/Beaconsfield</URL></extensions></wpt><wpt lat="52.487543" lon="1.523366"><name>Beccles</name><extensions><postcode>NR34 0HF</postcode><URL>http://motorwayservices.uk/Beccles</URL></extensions></wpt><wpt lat="51.269312" lon="-2.284404"><name>Beckington</name><extensions><postcode>BA11 6SF</postcode><URL>http://motorwayservices.uk/Beckington</URL></extensions></wpt><wpt lat="52.106571" lon="-0.477289"><name>Bedford</name><extensions><postcode>MK42 9BF</postcode><URL>http://motorwayservices.uk/Bedford</URL></extensions></wpt><wpt lat="51.380889" lon="0.576568"><name>Beechings_Way</name><extensions><postcode>ME8 6AD</postcode><URL>http://motorwayservices.uk/Beechings_Way</URL></extensions></wpt><wpt lat="52.390902" lon="-2.08655"><name>Bell</name><extensions><postcode>DY9 9XU</postcode><URL>http://motorwayservices.uk/Bell</URL></extensions></wpt><wpt lat="55.819802" lon="-4.040625"><name>Bellshill</name><extensions><postcode>ML4 3PD</postcode><URL>http://motorwayservices.uk/Bellshill</URL></extensions></wpt><wpt lat="51.562716" lon="-1.301428"><name>Berkshire_Downs</name><extensions><postcode>OX11 0RW</postcode><URL>http://motorwayservices.uk/Berkshire_Downs</URL></extensions></wpt><wpt lat="51.893734" lon="-1.161752"><name>Bicester</name><extensions><postcode>OX26 1BT</postcode><URL>http://motorwayservices.uk/Bicester</URL></extensions></wpt><wpt lat="52.444814" lon="-1.721605"><name>Bickenhill</name><extensions><postcode>B92 0EH</postcode><URL>http://motorwayservices.uk/Bickenhill</URL></extensions></wpt><wpt lat="52.930435" lon="-0.158074"><name>Bicker_Bar</name><extensions><postcode>PE20 3AN</postcode><URL>http://motorwayservices.uk/Bicker_Bar</URL></extensions></wpt><wpt lat="53.902811" lon="-1.197759"><name>Bilbrough</name><extensions><postcode>LS24 8EQ</postcode><URL>http://motorwayservices.uk/Bilbrough</URL></extensions></wpt><wpt lat="53.906408" lon="-1.184639"><name>Bilbrough_Top</name><extensions><postcode>YO23 3PP</postcode><URL>http://motorwayservices.uk/Bilbrough_Top</URL></extensions></wpt><wpt lat="52.388753" lon="-1.439643"><name>Binley</name><extensions><postcode>CV3 2ZZ</postcode><URL>http://motorwayservices.uk/Binley</URL></extensions></wpt><wpt lat="51.871647" lon="0.194809"><name>Birchanger_Green</name><extensions><postcode>CM23 5QZ</postcode><URL>http://motorwayservices.uk/Birchanger_Green</URL></extensions></wpt><wpt lat="53.566051" lon="-2.228462"><name>Birch</name><extensions><postcode>OL10 2RB</postcode><URL>http://motorwayservices.uk/Birch</URL></extensions></wpt><wpt lat="53.713152" lon="-2.476364"><name>Blackburn_with_Darwen</name><extensions><postcode>BB3 0DB</postcode><URL>http://motorwayservices.uk/Blackburn_with_Darwen</URL></extensions></wpt><wpt lat="51.447978" lon="0.115813"><name>Blendon</name><extensions><postcode>DA15 9NT</postcode><URL>http://motorwayservices.uk/Blendon</URL></extensions></wpt><wpt lat="52.674133" lon="-0.533208"><name>Bloody_Oaks</name><extensions><postcode>PE9 4AD</postcode><URL>http://motorwayservices.uk/Bloody_Oaks</URL></extensions></wpt><wpt lat="51.32012" lon="0.506047"><name>Blue_Bell_Hill</name><extensions><postcode>ME20 7EZ</postcode><URL>http://motorwayservices.uk/Blue_Bell_Hill</URL></extensions></wpt><wpt lat="53.382096" lon="-1.062269"><name>Blyth</name><extensions><postcode>S81 8HG</postcode><URL>http://motorwayservices.uk/Blyth</URL></extensions></wpt><wpt lat="51.35128" lon="0.706987"><name>Bobbing_Corner</name><extensions><postcode>ME9 8RZ</postcode><URL>http://motorwayservices.uk/Bobbing_Corner</URL></extensions></wpt><wpt lat="50.596432" lon="-4.484012"><name>Bodmin_Moor</name><extensions><postcode>PL15 7RR</postcode><URL>http://motorwayservices.uk/Bodmin_Moor</URL></extensions></wpt><wpt lat="52.578059" lon="-0.21971"><name>Boongate</name><extensions><postcode>PE1 5YA</postcode><URL>http://motorwayservices.uk/Boongate</URL></extensions></wpt><wpt lat="50.879231" lon="0.231109"><name>Boship</name><extensions><postcode>BN27 4DP</postcode><URL>http://motorwayservices.uk/Boship</URL></extensions></wpt><wpt lat="55.815529" lon="-4.063512"><name>Bothwell</name><extensions><postcode>G71 8BG</postcode><URL>http://motorwayservices.uk/Bothwell</URL></extensions></wpt><wpt lat="51.741639" lon="-0.529759"><name>Bourne_End</name><extensions><postcode>HP1 2SB</postcode><URL>http://motorwayservices.uk/Bourne_End</URL></extensions></wpt><wpt lat="52.042216" lon="-1.137096"><name>Brackley</name><extensions><postcode>NN13 5SZ</postcode><URL>http://motorwayservices.uk/Brackley</URL></extensions></wpt><wpt lat="54.648855" lon="-1.502692"><name>Bradbury</name><extensions><postcode>TS21 2ES</postcode><URL>http://motorwayservices.uk/Bradbury</URL></extensions></wpt><wpt lat="51.868433" lon="0.536594"><name>Braintree</name><extensions><postcode>CM77 7AB</postcode><URL>http://motorwayservices.uk/Braintree</URL></extensions></wpt><wpt lat="51.853151" lon="0.522111"><name>Braintree_Electric</name><extensions><postcode>CM77 7AP</postcode><URL>http://motorwayservices.uk/Braintree_Electric</URL></extensions></wpt><wpt lat="52.33148" lon="-0.252062"><name>Brampton_Hut</name><extensions><postcode>PE28 4NQ</postcode><URL>http://motorwayservices.uk/Brampton_Hut</URL></extensions></wpt><wpt lat="51.755583" lon="-0.425633"><name>Breakspear_Way</name><extensions><postcode>HP2 4TZ</postcode><URL>http://motorwayservices.uk/Breakspear_Way</URL></extensions></wpt><wpt lat="51.644458" lon="0.343425"><name>Brentwood</name><extensions><postcode>CM15 8SD</postcode><URL>http://motorwayservices.uk/Brentwood</URL></extensions></wpt><wpt lat="51.106063" lon="-2.994232"><name>Bridgwater</name><extensions><postcode>TA6 6TS</postcode><URL>http://motorwayservices.uk/Bridgwater</URL></extensions></wpt><wpt lat="52.700687" lon="-1.305293"><name>Browns_Blue</name><extensions><postcode>LE67 9PU</postcode><URL>http://motorwayservices.uk/Browns_Blue</URL></extensions></wpt><wpt lat="56.388004" lon="-3.481691"><name>Broxden</name><extensions><postcode>PH2 0PX</postcode><URL>http://motorwayservices.uk/Broxden</URL></extensions></wpt><wpt lat="52.631921" lon="1.428124"><name>Brundall</name><extensions><postcode>NR13 5AR</postcode><URL>http://motorwayservices.uk/Brundall</URL></extensions></wpt><wpt lat="50.991599" lon="-0.341098"><name>Buckbarn</name><extensions><postcode>RH13 8LW</postcode><URL>http://motorwayservices.uk/Buckbarn</URL></extensions></wpt><wpt lat="51.990061" lon="-0.977769"><name>Buckingham</name><extensions><postcode>MK18 1SH</postcode><URL>http://motorwayservices.uk/Buckingham</URL></extensions></wpt><wpt lat="51.679055" lon="-1.487863"><name>Buckland</name><extensions><postcode>SN7 8PY</postcode><URL>http://motorwayservices.uk/Buckland</URL></extensions></wpt><wpt lat="52.285257" lon="-1.612329"><name>Budbrooke</name><extensions><postcode>CV35 8RH</postcode><URL>http://motorwayservices.uk/Budbrooke</URL></extensions></wpt><wpt lat="54.179156" lon="-2.733711"><name>Burton-in-Kendal</name><extensions><postcode>LA6 1JF</postcode><URL>http://motorwayservices.uk/Burton-in-Kendal</URL></extensions></wpt><wpt lat="53.417246" lon="-2.637953"><name>Burtonwood</name><extensions><postcode>WA5 3AX</postcode><URL>http://motorwayservices.uk/Burtonwood</URL></extensions></wpt><wpt lat="53.393334" lon="-0.54789"><name>Caenby_Corner</name><extensions><postcode>LN8 2AS</postcode><URL>http://motorwayservices.uk/Caenby_Corner</URL></extensions></wpt><wpt lat="55.58572" lon="-3.825562"><name>Cairn_Lodge</name><extensions><postcode>ML11 0RJ</postcode><URL>http://motorwayservices.uk/Cairn_Lodge</URL></extensions></wpt><wpt lat="51.638225" lon="-1.837798"><name>Calcutt</name><extensions><postcode>SN6 6JR</postcode><URL>http://motorwayservices.uk/Calcutt</URL></extensions></wpt><wpt lat="53.469426" lon="-2.774377"><name>Caldo_Windle</name><extensions><postcode>WA10 6QY</postcode><URL>http://motorwayservices.uk/Caldo_Windle</URL></extensions></wpt><wpt lat="52.268927" lon="-0.008821"><name>Cambridge</name><extensions><postcode>CB23 4WU</postcode><URL>http://motorwayservices.uk/Cambridge</URL></extensions></wpt><wpt lat="52.392037" lon="-1.549544"><name>Canley_Ford</name><extensions><postcode>CV4 7BB</postcode><URL>http://motorwayservices.uk/Canley_Ford</URL></extensions></wpt><wpt lat="52.004929" lon="1.05788"><name>Capelgate</name><extensions><postcode>IP9 2JJ</postcode><URL>http://motorwayservices.uk/Capelgate</URL></extensions></wpt><wpt lat="53.588555" lon="-1.215502"><name>Carcroft</name><extensions><postcode>DN6 8LR</postcode><URL>http://motorwayservices.uk/Carcroft</URL></extensions></wpt><wpt lat="51.539936" lon="-3.130235"><name>Cardiff_Gate</name><extensions><postcode>CF23 8RA</postcode><URL>http://motorwayservices.uk/Cardiff_Gate</URL></extensions></wpt><wpt lat="51.508527" lon="-3.306801"><name>Cardiff_West</name><extensions><postcode>CF72 8SA</postcode><URL>http://motorwayservices.uk/Cardiff_West</URL></extensions></wpt><wpt lat="50.346953" lon="-5.025941"><name>Carland_Cross</name><extensions><postcode>TR8 5AY</postcode><URL>http://motorwayservices.uk/Carland_Cross</URL></extensions></wpt><wpt lat="54.92835" lon="-2.949064"><name>Carlisle_Truckstop</name><extensions><postcode>CA3 0JR</postcode><URL>http://motorwayservices.uk/Carlisle_Truckstop</URL></extensions></wpt><wpt lat="54.138446" lon="-2.75771"><name>Carnforth</name><extensions><postcode>LA5 9RQ</postcode><URL>http://motorwayservices.uk/Carnforth</URL></extensions></wpt><wpt lat="50.96174" lon="-2.751508"><name>Cartgate_Garage</name><extensions><postcode>TA14 6RA</postcode><URL>http://motorwayservices.uk/Cartgate_Garage</URL></extensions></wpt><wpt lat="50.96174" lon="-2.751508"><name>Cartgate_picnic_area</name><extensions><postcode>TA14 6RA</postcode><URL>http://motorwayservices.uk/Cartgate_picnic_area</URL></extensions></wpt><wpt lat="55.398215" lon="-1.692464"><name>Cawledge</name><extensions><postcode>NE66 2BF</postcode><URL>http://motorwayservices.uk/Cawledge</URL></extensions></wpt><wpt lat="52.230738" lon="-0.114608"><name>Caxton_Gibbet</name><extensions><postcode>CB23 3PD</postcode><URL>http://motorwayservices.uk/Caxton_Gibbet</URL></extensions></wpt><wpt lat="51.782007" lon="-2.034192"><name>Centurion</name><extensions><postcode>GL7 7JR</postcode><URL>http://motorwayservices.uk/Centurion</URL></extensions></wpt><wpt lat="53.629996" lon="-2.692571"><name>Charnock_Richard</name><extensions><postcode>PR7 5LR</postcode><URL>http://motorwayservices.uk/Charnock_Richard</URL></extensions></wpt><wpt lat="51.75494" lon="0.518993"><name>Chelmsford</name><extensions><postcode>CM2 5PY</postcode><URL>http://motorwayservices.uk/Chelmsford</URL></extensions></wpt><wpt lat="51.95006" lon="-1.199931"><name>Cherwell_Valley</name><extensions><postcode>OX27 7RD</postcode><URL>http://motorwayservices.uk/Cherwell_Valley</URL></extensions></wpt><wpt lat="53.268279" lon="-2.802359"><name>Chester</name><extensions><postcode>CH2 4QZ</postcode><URL>http://motorwayservices.uk/Chester</URL></extensions></wpt><wpt lat="51.111017" lon="-2.130499"><name>Chicklade</name><extensions><postcode>SP3 5ST</postcode><URL>http://motorwayservices.uk/Chicklade</URL></extensions></wpt><wpt lat="51.450451" lon="-1.309575"><name>Chieveley</name><extensions><postcode>RG18 9XX</postcode><URL>http://motorwayservices.uk/Chieveley</URL></extensions></wpt><wpt lat="51.345358" lon="0.107909"><name>Chimes</name><extensions><postcode>BR6 7SE</postcode><URL>http://motorwayservices.uk/Chimes</URL></extensions></wpt><wpt lat="51.511877" lon="-2.10498"><name>Chippenham_Pit_Stop</name><extensions><postcode>SN15 5LH</postcode><URL>http://motorwayservices.uk/Chippenham_Pit_Stop</URL></extensions></wpt><wpt lat="51.478386" lon="-2.129526"><name>Chippenham</name><extensions><postcode>SN14 6UY</postcode><URL>http://motorwayservices.uk/Chippenham</URL></extensions></wpt><wpt lat="50.279384" lon="-5.165736"><name>Chiverton_Cross</name><extensions><postcode>TR4 8HS</postcode><URL>http://motorwayservices.uk/Chiverton_Cross</URL></extensions></wpt><wpt lat="51.724698" lon="-1.951676"><name>Cirencester</name><extensions><postcode>GL7 5DS</postcode><URL>http://motorwayservices.uk/Cirencester</URL></extensions></wpt><wpt lat="51.27104" lon="0.039848"><name>Clacket_Lane</name><extensions><postcode>TN16 2ER</postcode><URL>http://motorwayservices.uk/Clacket_Lane</URL></extensions></wpt><wpt lat="53.874103" lon="-0.701524"><name>Coastways</name><extensions><postcode>YO43 3PN</postcode><URL>http://motorwayservices.uk/Coastways</URL></extensions></wpt><wpt lat="51.400914" lon="0.40152"><name>Cobham_(A2)</name><extensions><postcode>DA12 3BH</postcode><URL>http://motorwayservices.uk/Cobham_(A2)</URL></extensions></wpt><wpt lat="51.304268" lon="-0.405875"><name>Cobham</name><extensions><postcode>KT11 3DB</postcode><URL>http://motorwayservices.uk/Cobham</URL></extensions></wpt><wpt lat="54.500667" lon="-6.658127"><name>Cohannon</name><extensions><postcode>BT71 6HJ</postcode><URL>http://motorwayservices.uk/Cohannon</URL></extensions></wpt><wpt lat="51.926541" lon="0.895176"><name>Colchester</name><extensions><postcode>CO4 5HH</postcode><URL>http://motorwayservices.uk/Colchester</URL></extensions></wpt><wpt lat="55.068304" lon="-3.554767"><name>Collin</name><extensions><postcode>DG1 3SE</postcode><URL>http://motorwayservices.uk/Collin</URL></extensions></wpt><wpt lat="52.194487" lon="-0.891688"><name>Collingtree</name><extensions><postcode>NN4 0JN</postcode><URL>http://motorwayservices.uk/Collingtree</URL></extensions></wpt><wpt lat="52.802303" lon="-0.609887"><name>Colsterworth</name><extensions><postcode>NG33 5JR</postcode><URL>http://motorwayservices.uk/Colsterworth</URL></extensions></wpt><wpt lat="52.806076" lon="-0.613289"><name>Colsterworth_(North)</name><extensions><postcode>NG33 5JJ</postcode><URL>http://motorwayservices.uk/Colsterworth_(North)</URL></extensions></wpt><wpt lat="51.24292" lon="-2.291747"><name>Commerce_Park</name><extensions><postcode>BA11 2RY</postcode><URL>http://motorwayservices.uk/Commerce_Park</URL></extensions></wpt><wpt lat="54.311852" lon="-1.568597"><name>Coneygarth</name><extensions><postcode>DL7 9EG</postcode><URL>http://motorwayservices.uk/Coneygarth</URL></extensions></wpt><wpt lat="52.041015" lon="1.099561"><name>Copdock</name><extensions><postcode>IP8 3TT</postcode><URL>http://motorwayservices.uk/Copdock</URL></extensions></wpt><wpt lat="52.471822" lon="-1.546728"><name>Corley</name><extensions><postcode>CV7 8NR</postcode><URL>http://motorwayservices.uk/Corley</URL></extensions></wpt><wpt lat="50.425987" lon="-4.8158"><name>Cornwall</name><extensions><postcode>PL26 8UF</postcode><URL>http://motorwayservices.uk/Cornwall</URL></extensions></wpt><wpt lat="51.179717" lon="-1.782257"><name>Countess</name><extensions><postcode>SP4 7AS</postcode><URL>http://motorwayservices.uk/Countess</URL></extensions></wpt><wpt lat="52.506973" lon="-0.426394"><name>Country</name><extensions><postcode>PE8 6TZ</postcode><URL>http://motorwayservices.uk/Country</URL></extensions></wpt><wpt lat="53.144224" lon="-0.805111"><name>Cromwell</name><extensions><postcode>NG23 6JG</postcode><URL>http://motorwayservices.uk/Cromwell</URL></extensions></wpt><wpt lat="50.839958" lon="-0.5419"><name>Crossbush</name><extensions><postcode>BN17 7QQ</postcode><URL>http://motorwayservices.uk/Crossbush</URL></extensions></wpt><wpt lat="52.273816" lon="-3.330888"><name>Crossgates</name><extensions><postcode>LD1 6RE</postcode><URL>http://motorwayservices.uk/Crossgates</URL></extensions></wpt><wpt lat="51.797565" lon="-4.083697"><name>Cross_Hands</name><extensions><postcode>SA14 6RD</postcode><URL>http://motorwayservices.uk/Cross_Hands</URL></extensions></wpt><wpt lat="50.857254" lon="-3.37512"><name>Cullompton</name><extensions><postcode>EX15 1PA</postcode><URL>http://motorwayservices.uk/Cullompton</URL></extensions></wpt><wpt lat="51.849034" lon="-2.667376"><name>Daff-Y-Nant</name><extensions><postcode>HR9 6DW</postcode><URL>http://motorwayservices.uk/Daff-Y-Nant</URL></extensions></wpt><wpt lat="53.663263" lon="-1.266021"><name>Darrington</name><extensions><postcode>WF8 3HU</postcode><URL>http://motorwayservices.uk/Darrington</URL></extensions></wpt><wpt lat="52.274786" lon="1.527116"><name>Darsham</name><extensions><postcode>IP17 3PW</postcode><URL>http://motorwayservices.uk/Darsham</URL></extensions></wpt><wpt lat="52.042921" lon="-0.886456"><name>Deanshanger</name><extensions><postcode>MK19 6JU</postcode><URL>http://motorwayservices.uk/Deanshanger</URL></extensions></wpt><wpt lat="52.863948" lon="-1.564104"><name>Derby_and_Burton</name><extensions><postcode>DE65 6DX</postcode><URL>http://motorwayservices.uk/Derby_and_Burton</URL></extensions></wpt><wpt lat="52.867856" lon="-1.370986"><name>Derby_South</name><extensions><postcode>DE72 2WA</postcode><URL>http://motorwayservices.uk/Derby_South</URL></extensions></wpt><wpt lat="51.301746" lon="0.598862"><name>Detling_Hill</name><extensions><postcode>ME14 3HT</postcode><URL>http://motorwayservices.uk/Detling_Hill</URL></extensions></wpt><wpt lat="53.207205" lon="-0.615057"><name>Doddington</name><extensions><postcode>LN6 3SE</postcode><URL>http://motorwayservices.uk/Doddington</URL></extensions></wpt><wpt lat="52.533283" lon="-1.409383"><name>Dodwells</name><extensions><postcode>LE10 3ED</postcode><URL>http://motorwayservices.uk/Dodwells</URL></extensions></wpt><wpt lat="53.592151" lon="-0.992325"><name>Doncaster_(North)</name><extensions><postcode>DN8 5GS</postcode><URL>http://motorwayservices.uk/Doncaster_(North)</URL></extensions></wpt><wpt lat="52.82176" lon="-1.308152"><name>Donington</name><extensions><postcode>DE74 2TN</postcode><URL>http://motorwayservices.uk/Donington</URL></extensions></wpt><wpt lat="51.129204" lon="1.334821"><name>Dover_Port</name><extensions><postcode>CT16 1JA</postcode><URL>http://motorwayservices.uk/Dover_Port</URL></extensions></wpt><wpt lat="55.901088" lon="-3.232593"><name>Dreghorn</name><extensions><postcode>EH13 9QR</postcode><URL>http://motorwayservices.uk/Dreghorn</URL></extensions></wpt><wpt lat="54.121457" lon="-6.353573"><name>Dublin_Road</name><extensions><postcode>BT35 8RL</postcode><URL>http://motorwayservices.uk/Dublin_Road</URL></extensions></wpt><wpt lat="51.774351" lon="-1.49248"><name>Ducklington</name><extensions><postcode>OX28 4TT</postcode><URL>http://motorwayservices.uk/Ducklington</URL></extensions></wpt><wpt lat="55.935568" lon="-4.516692"><name>Dumbarton_Gateway</name><extensions><postcode>G82 2TZ</postcode><URL>http://motorwayservices.uk/Dumbarton_Gateway</URL></extensions></wpt><wpt lat="54.47979" lon="-6.782159"><name>Dungannon</name><extensions><postcode>BT70 1AE</postcode><URL>http://motorwayservices.uk/Dungannon</URL></extensions></wpt><wpt lat="54.727922" lon="-1.523024"><name>Durham</name><extensions><postcode>DH6 5NP</postcode><URL>http://motorwayservices.uk/Durham</URL></extensions></wpt><wpt lat="51.186411" lon="-0.648673"><name>Eashing</name><extensions><postcode>GU7 2QG</postcode><URL>http://motorwayservices.uk/Eashing</URL></extensions></wpt><wpt lat="54.802585" lon="-1.359634"><name>Easington</name><extensions><postcode>SR7 8SS</postcode><URL>http://motorwayservices.uk/Easington</URL></extensions></wpt><wpt lat="51.579905" lon="0.355577"><name>East_Horndon</name><extensions><postcode>CM13 3LL</postcode><URL>http://motorwayservices.uk/East_Horndon</URL></extensions></wpt><wpt lat="54.655376" lon="-1.303035"><name>Elwick</name><extensions><postcode>TS27 3HH</postcode><URL>http://motorwayservices.uk/Elwick</URL></extensions></wpt><wpt lat="52.390398" lon="0.238684"><name>Ely</name><extensions><postcode>CB6 3NN</postcode><URL>http://motorwayservices.uk/Ely</URL></extensions></wpt><wpt lat="52.112044" lon="-1.943843"><name>Evesham</name><extensions><postcode>WR11 4TP</postcode><URL>http://motorwayservices.uk/Evesham</URL></extensions></wpt><wpt lat="50.71413" lon="-3.4644"><name>Exeter</name><extensions><postcode>EX2 7HF</postcode><URL>http://motorwayservices.uk/Exeter</URL></extensions></wpt><wpt lat="52.612507" lon="-0.186807"><name>Eye_Green</name><extensions><postcode>PE6 7TN</postcode><URL>http://motorwayservices.uk/Eye_Green</URL></extensions></wpt><wpt lat="52.599728" lon="-0.210785"><name>Eye</name><extensions><postcode>PE1 4BF</postcode><URL>http://motorwayservices.uk/Eye</URL></extensions></wpt><wpt lat="51.788056" lon="-1.366947"><name>Eynsham</name><extensions><postcode>OX29 4EN</postcode><URL>http://motorwayservices.uk/Eynsham</URL></extensions></wpt><wpt lat="53.38319" lon="-0.00755"><name>Fairfield</name><extensions><postcode>LN11 0WA</postcode><URL>http://motorwayservices.uk/Fairfield</URL></extensions></wpt><wpt lat="51.850014" lon="-1.229493"><name>Family_Farm</name><extensions><postcode>OX25 3QQ</postcode><URL>http://motorwayservices.uk/Family_Farm</URL></extensions></wpt><wpt lat="50.836181" lon="-1.041313"><name>Farlington</name><extensions><postcode>PO6 1UN</postcode><URL>http://motorwayservices.uk/Farlington</URL></extensions></wpt><wpt lat="51.215641" lon="-0.789509"><name>Farnham</name><extensions><postcode>GU9 8SS</postcode><URL>http://motorwayservices.uk/Farnham</URL></extensions></wpt><wpt lat="51.852516" lon="0.730889"><name>Feering</name><extensions><postcode>CO5 9EL</postcode><URL>http://motorwayservices.uk/Feering</URL></extensions></wpt><wpt lat="52.282938" lon="-0.052014"><name>Fenstanton</name><extensions><postcode>CB23 4LU</postcode><URL>http://motorwayservices.uk/Fenstanton</URL></extensions></wpt><wpt lat="53.697602" lon="-1.266666"><name>Ferrybridge</name><extensions><postcode>WF11 0AF</postcode><URL>http://motorwayservices.uk/Ferrybridge</URL></extensions></wpt><wpt lat="55.982798" lon="-3.398868"><name>Ferrymuir</name><extensions><postcode>EH30 9QZ</postcode><URL>http://motorwayservices.uk/Ferrymuir</URL></extensions></wpt><wpt lat="56.706808" lon="-2.827899"><name>Finavon</name><extensions><postcode>DD8 3QD</postcode><URL>http://motorwayservices.uk/Finavon</URL></extensions></wpt><wpt lat="51.295546" lon="-0.855807"><name>Fleet</name><extensions><postcode>GU51 1AA</postcode><URL>http://motorwayservices.uk/Fleet</URL></extensions></wpt><wpt lat="51.094991" lon="1.04408"><name>Folkestone</name><extensions><postcode>CT21 4BL</postcode><URL>http://motorwayservices.uk/Folkestone</URL></extensions></wpt><wpt lat="51.692794" lon="-3.021239"><name>Folly_Tower</name><extensions><postcode>NP4 0XB</postcode><URL>http://motorwayservices.uk/Folly_Tower</URL></extensions></wpt><wpt lat="50.854564" lon="-0.64726"><name>Fontwell</name><extensions><postcode>BN18 0SB</postcode><URL>http://motorwayservices.uk/Fontwell</URL></extensions></wpt><wpt lat="55.984023" lon="-3.406828"><name>Forthview</name><extensions><postcode>EH30 9YJ</postcode><URL>http://motorwayservices.uk/Forthview</URL></extensions></wpt><wpt lat="52.916895" lon="-1.008228"><name>Fosseway</name><extensions><postcode>NG12 2JU</postcode><URL>http://motorwayservices.uk/Fosseway</URL></extensions></wpt><wpt lat="52.972297" lon="-0.724196"><name>Foston</name><extensions><postcode>NG32 2JS</postcode><URL>http://motorwayservices.uk/Foston</URL></extensions></wpt><wpt lat="52.07749" lon="-1.938341"><name>Four_Pools</name><extensions><postcode>WR11 2UT</postcode><URL>http://motorwayservices.uk/Four_Pools</URL></extensions></wpt><wpt lat="52.126784" lon="0.222478"><name>Fourwentways</name><extensions><postcode>CB21 6AP</postcode><URL>http://motorwayservices.uk/Fourwentways</URL></extensions></wpt><wpt lat="52.430009" lon="-2.016583"><name>Frankley</name><extensions><postcode>B32 4AR</postcode><URL>http://motorwayservices.uk/Frankley</URL></extensions></wpt><wpt lat="53.758495" lon="-2.441187"><name>Frontier_Park</name><extensions><postcode>BB1 4AU</postcode><URL>http://motorwayservices.uk/Frontier_Park</URL></extensions></wpt><wpt lat="51.869309" lon="0.581852"><name>Galleys_Corner</name><extensions><postcode>CM77 8GG</postcode><URL>http://motorwayservices.uk/Galleys_Corner</URL></extensions></wpt><wpt lat="51.289413" lon="0.99572"><name>Gate</name><extensions><postcode>ME13 9LN</postcode><URL>http://motorwayservices.uk/Gate</URL></extensions></wpt><wpt lat="53.197766" lon="-3.090834"><name>Gateway</name><extensions><postcode>CH7 6HB</postcode><URL>http://motorwayservices.uk/Gateway</URL></extensions></wpt><wpt lat="52.913627" lon="-3.042888"><name>Gledrid</name><extensions><postcode>SY11 3EN</postcode><URL>http://motorwayservices.uk/Gledrid</URL></extensions></wpt><wpt lat="54.851055" lon="-6.739531"><name>Glenshane</name><extensions><postcode>BT46 5JZ</postcode><URL>http://motorwayservices.uk/Glenshane</URL></extensions></wpt><wpt lat="52.63772" lon="-0.297906"><name>Glinton</name><extensions><postcode>PE6 7JR</postcode><URL>http://motorwayservices.uk/Glinton</URL></extensions></wpt><wpt lat="51.820244" lon="-2.228629"><name>Gloucester</name><extensions><postcode>GL4 0DN</postcode><URL>http://motorwayservices.uk/Gloucester</URL></extensions></wpt><wpt lat="54.856406" lon="-2.875933"><name>Golden_Fleece</name><extensions><postcode>CA4 0AN</postcode><URL>http://motorwayservices.uk/Golden_Fleece</URL></extensions></wpt><wpt lat="51.477507" lon="-2.707929"><name>Gordano</name><extensions><postcode>BS20 7XG</postcode><URL>http://motorwayservices.uk/Gordano</URL></extensions></wpt><wpt lat="53.19839" lon="-2.818193"><name>Gowy</name><extensions><postcode>CH3 7HN</postcode><URL>http://motorwayservices.uk/Gowy</URL></extensions></wpt><wpt lat="53.72458" lon="-0.526065"><name>Grand_Dale</name><extensions><postcode>HU14 3HG</postcode><URL>http://motorwayservices.uk/Grand_Dale</URL></extensions></wpt><wpt lat="52.193725" lon="-0.891853"><name>Grange_Farm</name><extensions><postcode>NN4 0LY</postcode><URL>http://motorwayservices.uk/Grange_Farm</URL></extensions></wpt><wpt lat="52.950611" lon="-0.677963"><name>Grantham_North</name><extensions><postcode>NG32 2AB</postcode><URL>http://motorwayservices.uk/Grantham_North</URL></extensions></wpt><wpt lat="51.869401" lon="0.33571"><name>Great_Dunmow</name><extensions><postcode>CM6 1SJ</postcode><URL>http://motorwayservices.uk/Great_Dunmow</URL></extensions></wpt><wpt lat="52.860576" lon="-0.629876"><name>Great_Ponton</name><extensions><postcode>NG33 5DW</postcode><URL>http://motorwayservices.uk/Great_Ponton</URL></extensions></wpt><wpt lat="55.010343" lon="-3.084493"><name>Gretna</name><extensions><postcode>DG16 5HQ</postcode><URL>http://motorwayservices.uk/Gretna</URL></extensions></wpt><wpt lat="54.234172" lon="-2.861933"><name>Greystones</name><extensions><postcode>LA11 6RJ</postcode><URL>http://motorwayservices.uk/Greystones</URL></extensions></wpt><wpt lat="54.197969" lon="-1.362669"><name>Gristhwaite</name><extensions><postcode>YO7 3HN</postcode><URL>http://motorwayservices.uk/Gristhwaite</URL></extensions></wpt><wpt lat="52.699234" lon="-2.968039"><name>Halfway_House</name><extensions><postcode>SY5 9DU</postcode><URL>http://motorwayservices.uk/Halfway_House</URL></extensions></wpt><wpt lat="52.260953" lon="-3.497097"><name>Halt</name><extensions><postcode>LD1 6NN</postcode><URL>http://motorwayservices.uk/Halt</URL></extensions></wpt><wpt lat="55.787109" lon="-4.035104"><name>Hamilton</name><extensions><postcode>ML3 6JW</postcode><URL>http://motorwayservices.uk/Hamilton</URL></extensions></wpt><wpt lat="51.054781" lon="-0.199348"><name>Handcross</name><extensions><postcode>RH17 6BL</postcode><URL>http://motorwayservices.uk/Handcross</URL></extensions></wpt><wpt lat="51.287337" lon="1.014747"><name>Harbledown</name><extensions><postcode>CT2 9AZ</postcode><URL>http://motorwayservices.uk/Harbledown</URL></extensions></wpt><wpt lat="51.805422" lon="-2.290669"><name>Hardwicke</name><extensions><postcode>GL2 2RQ</postcode><URL>http://motorwayservices.uk/Hardwicke</URL></extensions></wpt><wpt lat="52.324581" lon="-2.223886"><name>Hartlebury</name><extensions><postcode>DY11 7XP</postcode><URL>http://motorwayservices.uk/Hartlebury</URL></extensions></wpt><wpt lat="53.714327" lon="-1.74646"><name>Hartshead_Moor</name><extensions><postcode>HD6 4JX</postcode><URL>http://motorwayservices.uk/Hartshead_Moor</URL></extensions></wpt><wpt lat="53.472177" lon="-2.635718"><name>Haydock_Island</name><extensions><postcode>WA12 0HL</postcode><URL>http://motorwayservices.uk/Haydock_Island</URL></extensions></wpt><wpt lat="50.197856" lon="-5.395741"><name>Hayle</name><extensions><postcode>TR27 5DG</postcode><URL>http://motorwayservices.uk/Hayle</URL></extensions></wpt><wpt lat="51.029424" lon="-2.572282"><name>Hazelgrove</name><extensions><postcode>BA22 7JE</postcode><URL>http://motorwayservices.uk/Hazelgrove</URL></extensions></wpt><wpt lat="55.868614" lon="-3.703131"><name>Heartlands</name><extensions><postcode>EH47 0TB</postcode><URL>http://motorwayservices.uk/Heartlands</URL></extensions></wpt><wpt lat="55.868472" lon="-3.747481"><name>Heart_of_Scotland</name><extensions><postcode>ML7 5TT</postcode><URL>http://motorwayservices.uk/Heart_of_Scotland</URL></extensions></wpt><wpt lat="53.200169" lon="-1.342216"><name>Heath</name><extensions><postcode>S44 5SF</postcode><URL>http://motorwayservices.uk/Heath</URL></extensions></wpt><wpt lat="51.486656" lon="-0.396126"><name>Heston</name><extensions><postcode>TW5 9NB</postcode><URL>http://motorwayservices.uk/Heston</URL></extensions></wpt><wpt lat="50.968407" lon="-0.190427"><name>Hickstead</name><extensions><postcode>RH17 5NZ</postcode><URL>http://motorwayservices.uk/Hickstead</URL></extensions></wpt><wpt lat="54.428445" lon="-1.668298"><name>High_Brough_Moor</name><extensions><postcode>DL10 6PB</postcode><URL>http://motorwayservices.uk/High_Brough_Moor</URL></extensions></wpt><wpt lat="54.443673" lon="-6.11193"><name>Hillsborough</name><extensions><postcode>BT26 6JA</postcode><URL>http://motorwayservices.uk/Hillsborough</URL></extensions></wpt><wpt lat="52.64243" lon="-2.054986"><name>Hilton_Park</name><extensions><postcode>WV11 2AT</postcode><URL>http://motorwayservices.uk/Hilton_Park</URL></extensions></wpt><wpt lat="52.533283" lon="-1.409383"><name>Hinckley</name><extensions><postcode>LE10 3ED</postcode><URL>http://motorwayservices.uk/Hinckley</URL></extensions></wpt><wpt lat="51.225876" lon="-0.726141"><name>Hogs_Back</name><extensions><postcode>GU10 1EU</postcode><URL>http://motorwayservices.uk/Hogs_Back</URL></extensions></wpt><wpt lat="50.795585" lon="-3.206498"><name>Honiton</name><extensions><postcode>EX14 1BQ</postcode><URL>http://motorwayservices.uk/Honiton</URL></extensions></wpt><wpt lat="51.045285" lon="-0.345674"><name>Hop_Oast</name><extensions><postcode>RH13 0AR</postcode><URL>http://motorwayservices.uk/Hop_Oast</URL></extensions></wpt><wpt lat="52.363718" lon="-1.945766"><name>Hopwood_Park</name><extensions><postcode>B48 7AU</postcode><URL>http://motorwayservices.uk/Hopwood_Park</URL></extensions></wpt><wpt lat="51.069794" lon="-0.354206"><name>Horsham</name><extensions><postcode>RH12 3NS</postcode><URL>http://motorwayservices.uk/Horsham</URL></extensions></wpt><wpt lat="51.590267" lon="0.528397"><name>Hovefield</name><extensions><postcode>SS12 9HZ</postcode><URL>http://motorwayservices.uk/Hovefield</URL></extensions></wpt><wpt lat="53.723849" lon="-0.482009"><name>Hull_West</name><extensions><postcode>HU14 3LN</postcode><URL>http://motorwayservices.uk/Hull_West</URL></extensions></wpt><wpt lat="50.933958" lon="-2.940705"><name>Ilminster</name><extensions><postcode>TA19 9PT</postcode><URL>http://motorwayservices.uk/Ilminster</URL></extensions></wpt><wpt lat="54.404842" lon="-1.320214"><name>Ingleby_Arncliffe</name><extensions><postcode>DL6 3JT</postcode><URL>http://motorwayservices.uk/Ingleby_Arncliffe</URL></extensions></wpt><wpt lat="54.380245" lon="-2.853198"><name>Ings</name><extensions><postcode>LA8 9PY</postcode><URL>http://motorwayservices.uk/Ings</URL></extensions></wpt><wpt lat="53.090306" lon="-0.790774"><name>Interchange</name><extensions><postcode>NG24 2DF</postcode><URL>http://motorwayservices.uk/Interchange</URL></extensions></wpt><wpt lat="53.186766" lon="-1.350518"><name>J29_Truckstop</name><extensions><postcode>S42 5SA</postcode><URL>http://motorwayservices.uk/J29_Truckstop</URL></extensions></wpt><wpt lat="54.43914" lon="-2.593409"><name>J38_Truckstop</name><extensions><postcode>CA10 3SS</postcode><URL>http://motorwayservices.uk/J38_Truckstop</URL></extensions></wpt><wpt lat="51.012227" lon="-0.199686"><name>Jeremys_Corner</name><extensions><postcode>RH17 5QD</postcode><URL>http://motorwayservices.uk/Jeremys_Corner</URL></extensions></wpt><wpt lat="51.144533" lon="1.330364"><name>Jubilee</name><extensions><postcode>CT15 5FD</postcode><URL>http://motorwayservices.uk/Jubilee</URL></extensions></wpt><wpt lat="52.992774" lon="-2.2909"><name>Keele</name><extensions><postcode>ST5 5HG</postcode><URL>http://motorwayservices.uk/Keele</URL></extensions></wpt><wpt lat="50.661252" lon="-3.537292"><name>Kennford</name><extensions><postcode>EX6 7UD</postcode><URL>http://motorwayservices.uk/Kennford</URL></extensions></wpt><wpt lat="52.380626" lon="-0.730875"><name>Kettering</name><extensions><postcode>NN14 1RW</postcode><URL>http://motorwayservices.uk/Kettering</URL></extensions></wpt><wpt lat="54.313625" lon="-2.635838"><name>Killington_Lake</name><extensions><postcode>LA8 0NW</postcode><URL>http://motorwayservices.uk/Killington_Lake</URL></extensions></wpt><wpt lat="55.597173" lon="-4.471808"><name>Kilmarnock</name><extensions><postcode>KA1 5LQ</postcode><URL>http://motorwayservices.uk/Kilmarnock</URL></extensions></wpt><wpt lat="50.778866" lon="-3.032253"><name>Kilmington_Cross</name><extensions><postcode>EX13 7RB</postcode><URL>http://motorwayservices.uk/Kilmington_Cross</URL></extensions></wpt><wpt lat="56.054018" lon="-3.7587"><name>Kincardine_Bridge</name><extensions><postcode>FK2 8PF</postcode><URL>http://motorwayservices.uk/Kincardine_Bridge</URL></extensions></wpt><wpt lat="51.334392" lon="-1.256428"><name>Kingsclere</name><extensions><postcode>RG20 4TA</postcode><URL>http://motorwayservices.uk/Kingsclere</URL></extensions></wpt><wpt lat="50.826532" lon="-0.778565"><name>Kingsham</name><extensions><postcode>PO19 8TH</postcode><URL>http://motorwayservices.uk/Kingsham</URL></extensions></wpt><wpt lat="52.744466" lon="0.387058"><name>Kings_Lynn</name><extensions><postcode>PE34 3LW</postcode><URL>http://motorwayservices.uk/Kings_Lynn</URL></extensions></wpt><wpt lat="53.267644" lon="-3.517796"><name>Kinmel_Park</name><extensions><postcode>LL18 5XW</postcode><URL>http://motorwayservices.uk/Kinmel_Park</URL></extensions></wpt><wpt lat="56.208744" lon="-3.443989"><name>Kinross</name><extensions><postcode>KY13 0NQ</postcode><URL>http://motorwayservices.uk/Kinross</URL></extensions></wpt><wpt lat="53.300974" lon="-2.400876"><name>Knutsford</name><extensions><postcode>WA16 0TL</postcode><URL>http://motorwayservices.uk/Knutsford</URL></extensions></wpt><wpt lat="53.961645" lon="-2.760582"><name>Lancaster</name><extensions><postcode>LA2 9DU</postcode><URL>http://motorwayservices.uk/Lancaster</URL></extensions></wpt><wpt lat="53.772696" lon="-1.471273"><name>Leeds_Skelton_Lake</name><extensions><postcode>LS9 0AS</postcode><URL>http://motorwayservices.uk/Leeds_Skelton_Lake</URL></extensions></wpt><wpt lat="54.298943" lon="-1.566728"><name>Leeming_Bar</name><extensions><postcode>DL8 1DT</postcode><URL>http://motorwayservices.uk/Leeming_Bar</URL></extensions></wpt><wpt lat="52.619002" lon="-1.206122"><name>Leicester_Forest_East</name><extensions><postcode>LE3 3GB</postcode><URL>http://motorwayservices.uk/Leicester_Forest_East</URL></extensions></wpt><wpt lat="52.690601" lon="-1.127076"><name>Leicester_North</name><extensions><postcode>LE4 3BT</postcode><URL>http://motorwayservices.uk/Leicester_North</URL></extensions></wpt><wpt lat="51.511799" lon="-2.158225"><name>Leigh_Delamere</name><extensions><postcode>SN14 6LB</postcode><URL>http://motorwayservices.uk/Leigh_Delamere</URL></extensions></wpt><wpt lat="55.672265" lon="-1.916948"><name>Lindisfarne</name><extensions><postcode>TD15 2PD</postcode><URL>http://motorwayservices.uk/Lindisfarne</URL></extensions></wpt><wpt lat="51.083813" lon="-0.819147"><name>Liphook</name><extensions><postcode>GU30 7TT</postcode><URL>http://motorwayservices.uk/Liphook</URL></extensions></wpt><wpt lat="54.520365" lon="-6.011489"><name>Lisburn</name><extensions><postcode>BT27 5SG</postcode><URL>http://motorwayservices.uk/Lisburn</URL></extensions></wpt><wpt lat="52.461347" lon="0.294769"><name>Littleport</name><extensions><postcode>CB6 1JJ</postcode><URL>http://motorwayservices.uk/Littleport</URL></extensions></wpt><wpt lat="53.289985" lon="-3.642482"><name>Llanddulas</name><extensions><postcode>LL22 8HH</postcode><URL>http://motorwayservices.uk/Llanddulas</URL></extensions></wpt><wpt lat="52.303739" lon="-4.14734"><name>Llanrhystud</name><extensions><postcode>SY23 5BT</postcode><URL>http://motorwayservices.uk/Llanrhystud</URL></extensions></wpt><wpt lat="52.000695" lon="-2.794567"><name>Locks_Garage</name><extensions><postcode>HR2 9AS</postcode><URL>http://motorwayservices.uk/Locks_Garage</URL></extensions></wpt><wpt lat="55.957249" lon="-4.560604"><name>Lomondgate</name><extensions><postcode>G82 2QU</postcode><URL>http://motorwayservices.uk/Lomondgate</URL></extensions></wpt><wpt lat="51.631339" lon="-0.264336"><name>London_Gateway</name><extensions><postcode>NW7 3HU</postcode><URL>http://motorwayservices.uk/London_Gateway</URL></extensions></wpt><wpt lat="53.609106" lon="-0.243374"><name>Luxmore</name><extensions><postcode>DN40 3BH</postcode><URL>http://motorwayservices.uk/Luxmore</URL></extensions></wpt><wpt lat="53.359117" lon="-2.504454"><name>Lymm</name><extensions><postcode>WA13 0SP</postcode><URL>http://motorwayservices.uk/Lymm</URL></extensions></wpt><wpt lat="55.956012" lon="-2.866737"><name>Macmerry</name><extensions><postcode>EH33 1EJ</postcode><URL>http://motorwayservices.uk/Macmerry</URL></extensions></wpt><wpt lat="51.587529" lon="-2.837544"><name>Magor</name><extensions><postcode>NP26 3YL</postcode><URL>http://motorwayservices.uk/Magor</URL></extensions></wpt><wpt lat="51.523031" lon="-0.695151"><name>Maidenhead</name><extensions><postcode>SL6 0AP</postcode><URL>http://motorwayservices.uk/Maidenhead</URL></extensions></wpt><wpt lat="51.266597" lon="0.613865"><name>Maidstone</name><extensions><postcode>ME17 1SS</postcode><URL>http://motorwayservices.uk/Maidstone</URL></extensions></wpt><wpt lat="52.34435" lon="-1.340604"><name>Mangrove</name><extensions><postcode>CV23 9LG</postcode><URL>http://motorwayservices.uk/Mangrove</URL></extensions></wpt><wpt lat="52.445782" lon="-2.038541"><name>Manor_Way</name><extensions><postcode>B62 8RJ</postcode><URL>http://motorwayservices.uk/Manor_Way</URL></extensions></wpt><wpt lat="50.9888" lon="0.090301"><name>Maresfield</name><extensions><postcode>TN22 5EP</postcode><URL>http://motorwayservices.uk/Maresfield</URL></extensions></wpt><wpt lat="52.511046" lon="-0.941523"><name>Market_Harborough</name><extensions><postcode>LE16 7FD</postcode><URL>http://motorwayservices.uk/Market_Harborough</URL></extensions></wpt><wpt lat="52.698084" lon="-1.296974"><name>Markfield</name><extensions><postcode>LE67 9PP</postcode><URL>http://motorwayservices.uk/Markfield</URL></extensions></wpt><wpt lat="53.256809" lon="-0.924971"><name>Markham_Moor</name><extensions><postcode>DN22 0QU</postcode><URL>http://motorwayservices.uk/Markham_Moor</URL></extensions></wpt><wpt lat="53.242369" lon="-1.328667"><name>Markham_Vale</name><extensions><postcode>S44 5HS</postcode><URL>http://motorwayservices.uk/Markham_Vale</URL></extensions></wpt><wpt lat="52.047208" lon="-0.548531"><name>Marston_Moretaine</name><extensions><postcode>MK43 0PP</postcode><URL>http://motorwayservices.uk/Marston_Moretaine</URL></extensions></wpt><wpt lat="52.065514" lon="1.27598"><name>Martlesham_Heath</name><extensions><postcode>IP5 3RA</postcode><URL>http://motorwayservices.uk/Martlesham_Heath</URL></extensions></wpt><wpt lat="51.341571" lon="0.608165"><name>Medway</name><extensions><postcode>ME8 8PQ</postcode><URL>http://motorwayservices.uk/Medway</URL></extensions></wpt><wpt lat="51.483486" lon="-1.557179"><name>Membury</name><extensions><postcode>RG17 7TZ</postcode><URL>http://motorwayservices.uk/Membury</URL></extensions></wpt><wpt lat="51.666641" lon="-2.420144"><name>Michaelwood</name><extensions><postcode>GL11 6DD</postcode><URL>http://motorwayservices.uk/Michaelwood</URL></extensions></wpt><wpt lat="53.195137" lon="-2.432264"><name>Middlewich</name><extensions><postcode>CW10 0JB</postcode><URL>http://motorwayservices.uk/Middlewich</URL></extensions></wpt><wpt lat="52.849412" lon="-3.026558"><name>Mile_End</name><extensions><postcode>SY11 4JA</postcode><URL>http://motorwayservices.uk/Mile_End</URL></extensions></wpt><wpt lat="52.335564" lon="0.531698"><name>Milford</name><extensions><postcode>IP28 6AS</postcode><URL>http://motorwayservices.uk/Milford</URL></extensions></wpt><wpt lat="51.618762" lon="-1.300193"><name>Milton_Heights</name><extensions><postcode>OX14 4TX</postcode><URL>http://motorwayservices.uk/Milton_Heights</URL></extensions></wpt><wpt lat="51.991784" lon="-0.699304"><name>Milton_Keynes</name><extensions><postcode>MK17 9DN</postcode><URL>http://motorwayservices.uk/Milton_Keynes</URL></extensions></wpt><wpt lat="51.343242" lon="1.318059"><name>Minster</name><extensions><postcode>CT12 4AY</postcode><URL>http://motorwayservices.uk/Minster</URL></extensions></wpt><wpt lat="55.926192" lon="-3.06055"><name>Monktonhall</name><extensions><postcode>EH21 8RE</postcode><URL>http://motorwayservices.uk/Monktonhall</URL></extensions></wpt><wpt lat="55.517655" lon="-4.600214"><name>Monkton</name><extensions><postcode>KA9 2RJ</postcode><URL>http://motorwayservices.uk/Monkton</URL></extensions></wpt><wpt lat="51.774606" lon="-2.805068"><name>Monmouth</name><extensions><postcode>NP25 4BG</postcode><URL>http://motorwayservices.uk/Monmouth</URL></extensions></wpt><wpt lat="55.06464" lon="-1.580914"><name>Moor_Farm</name><extensions><postcode>NE23 7QA</postcode><URL>http://motorwayservices.uk/Moor_Farm</URL></extensions></wpt><wpt lat="52.593049" lon="-0.64122"><name>Morcott</name><extensions><postcode>LE15 9DL</postcode><URL>http://motorwayservices.uk/Morcott</URL></extensions></wpt><wpt lat="52.28692" lon="-0.840578"><name>Moulton</name><extensions><postcode>NN3 7TP</postcode><URL>http://motorwayservices.uk/Moulton</URL></extensions></wpt><wpt lat="52.254446" lon="-0.794367"><name>Nene_Valley</name><extensions><postcode>NN3 5LU</postcode><URL>http://motorwayservices.uk/Nene_Valley</URL></extensions></wpt><wpt lat="52.771548" lon="-2.922936"><name>Nesscliffe</name><extensions><postcode>SY4 1BZ</postcode><URL>http://motorwayservices.uk/Nesscliffe</URL></extensions></wpt><wpt lat="53.048585" lon="-0.778455"><name>Newark</name><extensions><postcode>NG24 3UG</postcode><URL>http://motorwayservices.uk/Newark</URL></extensions></wpt><wpt lat="54.264779" lon="-2.965746"><name>Newby_Bridge</name><extensions><postcode>LA12 8ND</postcode><URL>http://motorwayservices.uk/Newby_Bridge</URL></extensions></wpt><wpt lat="52.765769" lon="-0.610642"><name>New_Fox</name><extensions><postcode>NG33 5LN</postcode><URL>http://motorwayservices.uk/New_Fox</URL></extensions></wpt><wpt lat="52.249489" lon="0.364271"><name>Newmarket</name><extensions><postcode>CB8 0XG</postcode><URL>http://motorwayservices.uk/Newmarket</URL></extensions></wpt><wpt lat="52.08315" lon="-0.749005"><name>Newport_Pagnell</name><extensions><postcode>MK16 8DS</postcode><URL>http://motorwayservices.uk/Newport_Pagnell</URL></extensions></wpt><wpt lat="57.060472" lon="-4.127937"><name>Newtonmore</name><extensions><postcode>PH20 1BB</postcode><URL>http://motorwayservices.uk/Newtonmore</URL></extensions></wpt><wpt lat="54.584664" lon="-1.563364"><name>Newton_Park</name><extensions><postcode>DL1 3NL</postcode><URL>http://motorwayservices.uk/Newton_Park</URL></extensions></wpt><wpt lat="52.101299" lon="-2.5624"><name>Newtown_Cross</name><extensions><postcode>HR8 2TZ</postcode><URL>http://motorwayservices.uk/Newtown_Cross</URL></extensions></wpt><wpt lat="52.20919" lon="-0.94455"><name>Northampton</name><extensions><postcode>NN4 9QS</postcode><URL>http://motorwayservices.uk/Northampton</URL></extensions></wpt><wpt lat="53.128742" lon="-0.810949"><name>North_Muskham</name><extensions><postcode>NG23 6HT</postcode><URL>http://motorwayservices.uk/North_Muskham</URL></extensions></wpt><wpt lat="53.197934" lon="-3.090195"><name>Northop_Hall</name><extensions><postcode>CH7 6HF</postcode><URL>http://motorwayservices.uk/Northop_Hall</URL></extensions></wpt><wpt lat="52.174295" lon="-2.716367"><name>Northside</name><extensions><postcode>HR6 0PJ</postcode><URL>http://motorwayservices.uk/Northside</URL></extensions></wpt><wpt lat="52.665031" lon="-1.967827"><name>Norton_Canes</name><extensions><postcode>WS11 9UX</postcode><URL>http://motorwayservices.uk/Norton_Canes</URL></extensions></wpt><wpt lat="52.503944" lon="-1.477009"><name>Nuneaton</name><extensions><postcode>CV10 7DA</postcode><URL>http://motorwayservices.uk/Nuneaton</URL></extensions></wpt><wpt lat="51.200848" lon="-2.376471"><name>Nunney_Catch</name><extensions><postcode>BA11 4NX</postcode><URL>http://motorwayservices.uk/Nunney_Catch</URL></extensions></wpt><wpt lat="52.428201" lon="-1.581168"><name>Oak</name><extensions><postcode>CV5 9AN</postcode><URL>http://motorwayservices.uk/Oak</URL></extensions></wpt><wpt lat="51.758808" lon="-2.314336"><name>Oldbury</name><extensions><postcode>GL10 3SJ</postcode><URL>http://motorwayservices.uk/Oldbury</URL></extensions></wpt><wpt lat="55.967557" lon="-3.969789"><name>Old_Inns</name><extensions><postcode>G68 0BJ</postcode><URL>http://motorwayservices.uk/Old_Inns</URL></extensions></wpt><wpt lat="53.200111" lon="-1.027289"><name>Ollerton</name><extensions><postcode>NG22 9DT</postcode><URL>http://motorwayservices.uk/Ollerton</URL></extensions></wpt><wpt lat="53.280578" lon="-3.89941"><name>Orme_View</name><extensions><postcode>LL34 6UN</postcode><URL>http://motorwayservices.uk/Orme_View</URL></extensions></wpt><wpt lat="51.506028" lon="0.382546"><name>Orsett</name><extensions><postcode>RM16 3BJ</postcode><URL>http://motorwayservices.uk/Orsett</URL></extensions></wpt><wpt lat="52.0235" lon="1.186932"><name>Orwell</name><extensions><postcode>IP10 0NZ</postcode><URL>http://motorwayservices.uk/Orwell</URL></extensions></wpt><wpt lat="52.230619" lon="-1.026901"><name>Oval</name><extensions><postcode>NN7 3NA</postcode><URL>http://motorwayservices.uk/Oval</URL></extensions></wpt><wpt lat="52.204412" lon="-1.876498"><name>Oversley_Mill</name><extensions><postcode>B49 6PQ</postcode><URL>http://motorwayservices.uk/Oversley_Mill</URL></extensions></wpt><wpt lat="51.738038" lon="-1.097191"><name>Oxford</name><extensions><postcode>OX33 1LJ</postcode><URL>http://motorwayservices.uk/Oxford</URL></extensions></wpt><wpt lat="53.371675" lon="-1.417959"><name>Parkway</name><extensions><postcode>S2 1FF</postcode><URL>http://motorwayservices.uk/Parkway</URL></extensions></wpt><wpt lat="53.191814" lon="0.107472"><name>Partney</name><extensions><postcode>PE23 4PF</postcode><URL>http://motorwayservices.uk/Partney</URL></extensions></wpt><wpt lat="50.509953" lon="-3.76397"><name>Peartree_Cross</name><extensions><postcode>TQ13 7RB</postcode><URL>http://motorwayservices.uk/Peartree_Cross</URL></extensions></wpt><wpt lat="51.795601" lon="-1.283438"><name>Peartree</name><extensions><postcode>OX2 8JZ</postcode><URL>http://motorwayservices.uk/Peartree</URL></extensions></wpt><wpt lat="51.083316" lon="-0.199939"><name>Pease_Pottage</name><extensions><postcode>RH11 9YA</postcode><URL>http://motorwayservices.uk/Pease_Pottage</URL></extensions></wpt><wpt lat="50.37848" lon="-4.943711"><name>Penhale</name><extensions><postcode>TR9 6NA</postcode><URL>http://motorwayservices.uk/Penhale</URL></extensions></wpt><wpt lat="50.507818" lon="-4.664863"><name>Penlan</name><extensions><postcode>PL30 4HH</postcode><URL>http://motorwayservices.uk/Penlan</URL></extensions></wpt><wpt lat="54.661616" lon="-2.764245"><name>Penrith</name><extensions><postcode>CA11 9EH</postcode><URL>http://motorwayservices.uk/Penrith</URL></extensions></wpt><wpt lat="52.531639" lon="-0.320705"><name>Peterborough</name><extensions><postcode>PE7 3UQ</postcode><URL>http://motorwayservices.uk/Peterborough</URL></extensions></wpt><wpt lat="51.008611" lon="-0.951553"><name>Petersfield</name><extensions><postcode>GU32 3BS</postcode><URL>http://motorwayservices.uk/Petersfield</URL></extensions></wpt><wpt lat="50.822577" lon="0.343121"><name>Pevensey</name><extensions><postcode>BN24 5JW</postcode><URL>http://motorwayservices.uk/Pevensey</URL></extensions></wpt><wpt lat="50.853816" lon="-1.730116"><name>Picket_Post</name><extensions><postcode>BH24 3HN</postcode><URL>http://motorwayservices.uk/Picket_Post</URL></extensions></wpt><wpt lat="53.920833" lon="-0.795361"><name>Pocklington</name><extensions><postcode>YO42 1AD</postcode><URL>http://motorwayservices.uk/Pocklington</URL></extensions></wpt><wpt lat="51.023092" lon="-2.659909"><name>Podimore</name><extensions><postcode>BA22 8JG</postcode><URL>http://motorwayservices.uk/Podimore</URL></extensions></wpt><wpt lat="50.829093" lon="0.23684"><name>Polegate</name><extensions><postcode>BN26 6QL</postcode><URL>http://motorwayservices.uk/Polegate</URL></extensions></wpt><wpt lat="51.747468" lon="-4.065913"><name>Pont_Abraham</name><extensions><postcode>SA4 0FU</postcode><URL>http://motorwayservices.uk/Pont_Abraham</URL></extensions></wpt><wpt lat="51.193088" lon="-1.232428"><name>Popham</name><extensions><postcode>SO21 3SP</postcode><URL>http://motorwayservices.uk/Popham</URL></extensions></wpt><wpt lat="53.972016" lon="-1.142754"><name>Poppleton</name><extensions><postcode>YO26 6QD</postcode><URL>http://motorwayservices.uk/Poppleton</URL></extensions></wpt><wpt lat="54.297604" lon="-2.75948"><name>Prizet</name><extensions><postcode>LA8 8AA</postcode><URL>http://motorwayservices.uk/Prizet</URL></extensions></wpt><wpt lat="50.901124" lon="-0.174491"><name>Pyecombe_(North)</name><extensions><postcode>BN45 7ED</postcode><URL>http://motorwayservices.uk/Pyecombe_(North)</URL></extensions></wpt><wpt lat="50.886923" lon="-0.164141"><name>Pyecombe_(South)</name><extensions><postcode>BN45 7FJ</postcode><URL>http://motorwayservices.uk/Pyecombe_(South)</URL></extensions></wpt><wpt lat="51.41567" lon="0.759276"><name>Queenborough</name><extensions><postcode>ME12 3EW</postcode><URL>http://motorwayservices.uk/Queenborough</URL></extensions></wpt><wpt lat="52.732462" lon="-0.600104"><name>Ram_Jam</name><extensions><postcode>LE15 7QX</postcode><URL>http://motorwayservices.uk/Ram_Jam</URL></extensions></wpt><wpt lat="52.352247" lon="-0.54626"><name>Raunds</name><extensions><postcode>NN9 6EQ</postcode><URL>http://motorwayservices.uk/Raunds</URL></extensions></wpt><wpt lat="51.423594" lon="-1.036664"><name>Reading</name><extensions><postcode>RG30 3UQ</postcode><URL>http://motorwayservices.uk/Reading</URL></extensions></wpt><wpt lat="52.23198" lon="-1.004718"><name>Red_Lion_Truckstop</name><extensions><postcode>NN7 4DE</postcode><URL>http://motorwayservices.uk/Red_Lion_Truckstop</URL></extensions></wpt><wpt lat="50.775143" lon="-2.153353"><name>Red_Post</name><extensions><postcode>DT11 9EX</postcode><URL>http://motorwayservices.uk/Red_Post</URL></extensions></wpt><wpt lat="52.409442" lon="-0.262807"><name>Redwings</name><extensions><postcode>PE28 5XP</postcode><URL>http://motorwayservices.uk/Redwings</URL></extensions></wpt><wpt lat="54.647418" lon="-2.781083"><name>Rheged</name><extensions><postcode>CA11 0DQ</postcode><URL>http://motorwayservices.uk/Rheged</URL></extensions></wpt><wpt lat="53.027758" lon="-3.029416"><name>Rhostyllen</name><extensions><postcode>LL14 4EJ</postcode><URL>http://motorwayservices.uk/Rhostyllen</URL></extensions></wpt><wpt lat="51.310178" lon="1.348697"><name>Richborough</name><extensions><postcode>CT13 9NL</postcode><URL>http://motorwayservices.uk/Richborough</URL></extensions></wpt><wpt lat="53.726195" lon="-2.332514"><name>Rising_Bridge</name><extensions><postcode>BB5 2SB</postcode><URL>http://motorwayservices.uk/Rising_Bridge</URL></extensions></wpt><wpt lat="53.600516" lon="-2.573013"><name>Rivington</name><extensions><postcode>BL6 5UZ</postcode><URL>http://motorwayservices.uk/Rivington</URL></extensions></wpt><wpt lat="51.927802" lon="-2.568111"><name>Ross_Spur</name><extensions><postcode>HR9 7QJ</postcode><URL>http://motorwayservices.uk/Ross_Spur</URL></extensions></wpt><wpt lat="52.414473" lon="-0.790084"><name>Rothwell</name><extensions><postcode>NN14 1SS</postcode><URL>http://motorwayservices.uk/Rothwell</URL></extensions></wpt><wpt lat="52.412899" lon="-0.813049"><name>Rothwell_Truckstop</name><extensions><postcode>NN14 6AA</postcode><URL>http://motorwayservices.uk/Rothwell_Truckstop</URL></extensions></wpt><wpt lat="51.06296" lon="-4.083878"><name>Roundswell</name><extensions><postcode>EX31 3RZ</postcode><URL>http://motorwayservices.uk/Roundswell</URL></extensions></wpt><wpt lat="55.648703" lon="-3.892995"><name>Route_74_Truckstop</name><extensions><postcode>ML11 0FA</postcode><URL>http://motorwayservices.uk/Route_74_Truckstop</URL></extensions></wpt><wpt lat="52.050051" lon="-1.664999"><name>Rowborough</name><extensions><postcode>GL56 9RE</postcode><URL>http://motorwayservices.uk/Rowborough</URL></extensions></wpt><wpt lat="50.952732" lon="-1.452068"><name>Rownhams</name><extensions><postcode>SO16 8AP</postcode><URL>http://motorwayservices.uk/Rownhams</URL></extensions></wpt><wpt lat="52.993689" lon="-3.031198"><name>Ruabon</name><extensions><postcode>LL14 6YY</postcode><URL>http://motorwayservices.uk/Ruabon</URL></extensions></wpt><wpt lat="50.90585" lon="-1.626655"><name>Rufus_Stone</name><extensions><postcode>SO43 7GN</postcode><URL>http://motorwayservices.uk/Rufus_Stone</URL></extensions></wpt><wpt lat="52.410771" lon="-1.250053"><name>Rugby</name><extensions><postcode>CV23 0EZ</postcode><URL>http://motorwayservices.uk/Rugby</URL></extensions></wpt><wpt lat="52.381895" lon="-1.188805"><name>Rugby_Truckstop</name><extensions><postcode>CV23 0AE</postcode><URL>http://motorwayservices.uk/Rugby_Truckstop</URL></extensions></wpt><wpt lat="52.299101" lon="-0.627428"><name>Rushden</name><extensions><postcode>NN10 6AP</postcode><URL>http://motorwayservices.uk/Rushden</URL></extensions></wpt><wpt lat="50.820453" lon="-0.526195"><name>Rustington</name><extensions><postcode>BN17 6LE</postcode><URL>http://motorwayservices.uk/Rustington</URL></extensions></wpt><wpt lat="50.41779" lon="-4.233786"><name>Saltash</name><extensions><postcode>PL12 6LF</postcode><URL>http://motorwayservices.uk/Saltash</URL></extensions></wpt><wpt lat="53.139358" lon="-2.335809"><name>Sandbach</name><extensions><postcode>CW11 2FZ</postcode><URL>http://motorwayservices.uk/Sandbach</URL></extensions></wpt><wpt lat="51.534969" lon="-3.576388"><name>Sarn_Park</name><extensions><postcode>CF32 9SY</postcode><URL>http://motorwayservices.uk/Sarn_Park</URL></extensions></wpt><wpt lat="53.232995" lon="-2.942376"><name>Saughall</name><extensions><postcode>CH1 6JS</postcode><URL>http://motorwayservices.uk/Saughall</URL></extensions></wpt><wpt lat="54.443985" lon="-1.666329"><name>Scotch_Corner</name><extensions><postcode>DL10 6PQ</postcode><URL>http://motorwayservices.uk/Scotch_Corner</URL></extensions></wpt><wpt lat="55.059013" lon="-1.627688"><name>Seaton_Burn</name><extensions><postcode>NE13 6EP</postcode><URL>http://motorwayservices.uk/Seaton_Burn</URL></extensions></wpt><wpt lat="54.442628" lon="-1.679709"><name>Sedbury</name><extensions><postcode>DL10 5LP</postcode><URL>http://motorwayservices.uk/Sedbury</URL></extensions></wpt><wpt lat="54.648295" lon="-1.43987"><name>Sedgefield</name><extensions><postcode>TS21 2JX</postcode><URL>http://motorwayservices.uk/Sedgefield</URL></extensions></wpt><wpt lat="51.268829" lon="-2.924042"><name>Sedgemoor_(North)</name><extensions><postcode>BS24 0JL</postcode><URL>http://motorwayservices.uk/Sedgemoor_(North)</URL></extensions></wpt><wpt lat="51.269063" lon="-2.919431"><name>Sedgemoor_(South)</name><extensions><postcode>BS26 2UF</postcode><URL>http://motorwayservices.uk/Sedgemoor_(South)</URL></extensions></wpt><wpt lat="51.638225" lon="-1.837798"><name>Seven_Bridges</name><extensions><postcode>SN6 6JR</postcode><URL>http://motorwayservices.uk/Seven_Bridges</URL></extensions></wpt><wpt lat="51.603826" lon="-2.62125"><name>Severn_View</name><extensions><postcode>BS35 4BH</postcode><URL>http://motorwayservices.uk/Severn_View</URL></extensions></wpt><wpt lat="52.030223" lon="-0.33628"><name>Shefford</name><extensions><postcode>SG17 5LH</postcode><URL>http://motorwayservices.uk/Shefford</URL></extensions></wpt><wpt lat="51.475411" lon="0.027033"><name>Shooters_Hill</name><extensions><postcode>SE3 8UQ</postcode><URL>http://motorwayservices.uk/Shooters_Hill</URL></extensions></wpt><wpt lat="52.681916" lon="-2.760901"><name>Shrewsbury</name><extensions><postcode>SY3 0DA</postcode><URL>http://motorwayservices.uk/Shrewsbury</URL></extensions></wpt><wpt lat="52.234526" lon="-0.937771"><name>Sixfields</name><extensions><postcode>NN5 4EG</postcode><URL>http://motorwayservices.uk/Sixfields</URL></extensions></wpt><wpt lat="51.658153" lon="-3.832933"><name>Skewen</name><extensions><postcode>SA10 7DR</postcode><URL>http://motorwayservices.uk/Skewen</URL></extensions></wpt><wpt lat="57.675799" lon="-4.304279"><name>Skiach</name><extensions><postcode>IV16 9XJ</postcode><URL>http://motorwayservices.uk/Skiach</URL></extensions></wpt><wpt lat="53.998574" lon="-1.273614"><name>Skipbridge</name><extensions><postcode>YO26 8EQ</postcode><URL>http://motorwayservices.uk/Skipbridge</URL></extensions></wpt><wpt lat="53.010934" lon="-0.423458"><name>Sleaford</name><extensions><postcode>NG34 8NP</postcode><URL>http://motorwayservices.uk/Sleaford</URL></extensions></wpt><wpt lat="50.382299" lon="-3.985793"><name>Smithaleigh</name><extensions><postcode>PL7 5AX</postcode><URL>http://motorwayservices.uk/Smithaleigh</URL></extensions></wpt><wpt lat="52.471606" lon="0.954114"><name>Snetterton</name><extensions><postcode>NR16 2JU</postcode><URL>http://motorwayservices.uk/Snetterton</URL></extensions></wpt><wpt lat="51.177468" lon="-1.758978"><name>Solstice</name><extensions><postcode>SP4 7SQ</postcode><URL>http://motorwayservices.uk/Solstice</URL></extensions></wpt><wpt lat="50.707756" lon="-4.059736"><name>Sourton_Cross</name><extensions><postcode>EX20 4LY</postcode><URL>http://motorwayservices.uk/Sourton_Cross</URL></extensions></wpt><wpt lat="53.759691" lon="-0.593325"><name>South_Cave</name><extensions><postcode>HU15 2DA</postcode><URL>http://motorwayservices.uk/South_Cave</URL></extensions></wpt><wpt lat="51.687531" lon="-0.221891"><name>South_Mimms</name><extensions><postcode>EN6 3QQ</postcode><URL>http://motorwayservices.uk/South_Mimms</URL></extensions></wpt><wpt lat="54.798923" lon="-2.869965"><name>Southwaite</name><extensions><postcode>CA4 0NT</postcode><URL>http://motorwayservices.uk/Southwaite</URL></extensions></wpt><wpt lat="51.609418" lon="0.266195"><name>South_Weald</name><extensions><postcode>CM14 5NA</postcode><URL>http://motorwayservices.uk/South_Weald</URL></extensions></wpt><wpt lat="53.977948" lon="-1.13266"><name>Spaceways</name><extensions><postcode>YO26 6RB</postcode><URL>http://motorwayservices.uk/Spaceways</URL></extensions></wpt><wpt lat="52.760909" lon="-0.158629"><name>Spalding</name><extensions><postcode>PE12 6FY</postcode><URL>http://motorwayservices.uk/Spalding</URL></extensions></wpt><wpt lat="52.341316" lon="-0.341607"><name>Spaldwick</name><extensions><postcode>PE28 0TD</postcode><URL>http://motorwayservices.uk/Spaldwick</URL></extensions></wpt><wpt lat="52.799982" lon="-0.118411"><name>Springfields</name><extensions><postcode>PE12 6JP</postcode><URL>http://motorwayservices.uk/Springfields</URL></extensions></wpt><wpt lat="50.747381" lon="-1.82524"><name>Spur_End</name><extensions><postcode>BH7 7DP</postcode><URL>http://motorwayservices.uk/Spur_End</URL></extensions></wpt><wpt lat="52.884344" lon="-2.170513"><name>Stafford_(North)</name><extensions><postcode>ST15 0EU</postcode><URL>http://motorwayservices.uk/Stafford_(North)</URL></extensions></wpt><wpt lat="52.873195" lon="-2.1612"><name>Stafford_(South)</name><extensions><postcode>ST15 0XE</postcode><URL>http://motorwayservices.uk/Stafford_(South)</URL></extensions></wpt><wpt lat="55.125448" lon="-1.67159"><name>Stannington</name><extensions><postcode>NE61 6DR</postcode><URL>http://motorwayservices.uk/Stannington</URL></extensions></wpt><wpt lat="51.875575" lon="0.247784"><name>Stansted</name><extensions><postcode>CM24 1PY</postcode><URL>http://motorwayservices.uk/Stansted</URL></extensions></wpt><wpt lat="51.817994" lon="-4.503711"><name>St_Clears</name><extensions><postcode>SA33 4JW</postcode><URL>http://motorwayservices.uk/St_Clears</URL></extensions></wpt><wpt lat="52.568346" lon="-0.39044"><name>Stibbington</name><extensions><postcode>PE8 6LR</postcode><URL>http://motorwayservices.uk/Stibbington</URL></extensions></wpt><wpt lat="52.654622" lon="-2.428922"><name>Stirchley</name><extensions><postcode>TF3 1QU</postcode><URL>http://motorwayservices.uk/Stirchley</URL></extensions></wpt><wpt lat="56.075747" lon="-3.922476"><name>Stirling</name><extensions><postcode>FK7 8EU</postcode><URL>http://motorwayservices.uk/Stirling</URL></extensions></wpt><wpt lat="50.545606" lon="-4.779445"><name>St_Kew</name><extensions><postcode>PL30 3ED</postcode><URL>http://motorwayservices.uk/St_Kew</URL></extensions></wpt><wpt lat="50.82935" lon="-1.838707"><name>St_Leonards</name><extensions><postcode>BH24 2NR</postcode><URL>http://motorwayservices.uk/St_Leonards</URL></extensions></wpt><wpt lat="50.828718" lon="-0.788055"><name>Stockbridge</name><extensions><postcode>PO19 8FH</postcode><URL>http://motorwayservices.uk/Stockbridge</URL></extensions></wpt><wpt lat="52.379037" lon="-1.515344"><name>Stonebridge</name><extensions><postcode>CV3 6RQ</postcode><URL>http://motorwayservices.uk/Stonebridge</URL></extensions></wpt><wpt lat="52.598992" lon="0.397347"><name>Stonecross</name><extensions><postcode>PE38 0AD</postcode><URL>http://motorwayservices.uk/Stonecross</URL></extensions></wpt><wpt lat="56.77494" lon="-2.61372"><name>Stracathro</name><extensions><postcode>DD9 7QA</postcode><URL>http://motorwayservices.uk/Stracathro</URL></extensions></wpt><wpt lat="57.43965" lon="-2.766175"><name>Strathbogie</name><extensions><postcode>AB54 6JD</postcode><URL>http://motorwayservices.uk/Strathbogie</URL></extensions></wpt><wpt lat="52.064651" lon="-2.157269"><name>Strensham</name><extensions><postcode>WR8 0BZ</postcode><URL>http://motorwayservices.uk/Strensham</URL></extensions></wpt><wpt lat="52.88846" lon="-0.080449"><name>Sutterton</name><extensions><postcode>PE20 2LG</postcode><URL>http://motorwayservices.uk/Sutterton</URL></extensions></wpt><wpt lat="51.156323" lon="-1.344286"><name>Sutton_Scotney</name><extensions><postcode>SO21 3JY</postcode><URL>http://motorwayservices.uk/Sutton_Scotney</URL></extensions></wpt><wpt lat="52.652542" lon="0.7239"><name>Swaffham</name><extensions><postcode>PE37 7TZ</postcode><URL>http://motorwayservices.uk/Swaffham</URL></extensions></wpt><wpt lat="51.397824" lon="-0.984636"><name>Swallowfield</name><extensions><postcode>RG7 1LZ</postcode><URL>http://motorwayservices.uk/Swallowfield</URL></extensions></wpt><wpt lat="51.409668" lon="0.144023"><name>Swanley</name><extensions><postcode>DA14 5JA</postcode><URL>http://motorwayservices.uk/Swanley</URL></extensions></wpt><wpt lat="51.679241" lon="-3.995297"><name>Swansea_West</name><extensions><postcode>SA4 9GT</postcode><URL>http://motorwayservices.uk/Swansea_West</URL></extensions></wpt><wpt lat="51.851709" lon="-2.664442"><name>Symonds_Yat</name><extensions><postcode>HR9 6DP</postcode><URL>http://motorwayservices.uk/Symonds_Yat</URL></extensions></wpt><wpt lat="53.061759" lon="-2.25048"><name>Talke</name><extensions><postcode>ST7 1UP</postcode><URL>http://motorwayservices.uk/Talke</URL></extensions></wpt><wpt lat="52.607476" lon="-1.64011"><name>Tamworth</name><extensions><postcode>B77 5PS</postcode><URL>http://motorwayservices.uk/Tamworth</URL></extensions></wpt><wpt lat="50.975507" lon="-3.146758"><name>Taunton_Deane</name><extensions><postcode>TA3 7PF</postcode><URL>http://motorwayservices.uk/Taunton_Deane</URL></extensions></wpt><wpt lat="54.449654" lon="-2.609982"><name>Tebay</name><extensions><postcode>CA10 3SB</postcode><URL>http://motorwayservices.uk/Tebay</URL></extensions></wpt><wpt lat="52.003435" lon="-2.055863"><name>Teddington_Hands</name><extensions><postcode>GL20 8NE</postcode><URL>http://motorwayservices.uk/Teddington_Hands</URL></extensions></wpt><wpt lat="50.648241" lon="-3.547489"><name>Telegraph_Hill</name><extensions><postcode>EX6 7XX</postcode><URL>http://motorwayservices.uk/Telegraph_Hill</URL></extensions></wpt><wpt lat="52.677301" lon="-2.400242"><name>Telford</name><extensions><postcode>TF11 8TG</postcode><URL>http://motorwayservices.uk/Telford</URL></extensions></wpt><wpt lat="54.695437" lon="-6.023114"><name>Templepatrick</name><extensions><postcode>BT36 4RN</postcode><URL>http://motorwayservices.uk/Templepatrick</URL></extensions></wpt><wpt lat="51.756842" lon="-0.978808"><name>Thame</name><extensions><postcode>OX9 3SB</postcode><URL>http://motorwayservices.uk/Thame</URL></extensions></wpt><wpt lat="51.325414" lon="0.98743"><name>Thanet_Way</name><extensions><postcode>ME13 9EL</postcode><URL>http://motorwayservices.uk/Thanet_Way</URL></extensions></wpt><wpt lat="51.188531" lon="-1.411655"><name>The_Buck</name><extensions><postcode>SP11 6NJ</postcode><URL>http://motorwayservices.uk/The_Buck</URL></extensions></wpt><wpt lat="52.422879" lon="0.727361"><name>Thetford</name><extensions><postcode>IP24 1QN</postcode><URL>http://motorwayservices.uk/Thetford</URL></extensions></wpt><wpt lat="52.604064" lon="1.219121"><name>Thickthorn</name><extensions><postcode>NR9 3AU</postcode><URL>http://motorwayservices.uk/Thickthorn</URL></extensions></wpt><wpt lat="54.228492" lon="-1.329105"><name>Thirsk</name><extensions><postcode>YO7 3AA</postcode><URL>http://motorwayservices.uk/Thirsk</URL></extensions></wpt><wpt lat="53.17753" lon="-0.626411"><name>Thorpe_on_the_Hill</name><extensions><postcode>LN6 9AJ</postcode><URL>http://motorwayservices.uk/Thorpe_on_the_Hill</URL></extensions></wpt><wpt lat="52.39178" lon="-0.52543"><name>Thrapston</name><extensions><postcode>NN14 4UR</postcode><URL>http://motorwayservices.uk/Thrapston</URL></extensions></wpt><wpt lat="52.748651" lon="-1.061412"><name>Thrussington</name><extensions><postcode>LE7 4TF</postcode><URL>http://motorwayservices.uk/Thrussington</URL></extensions></wpt><wpt lat="51.492281" lon="0.272254"><name>Thurrock</name><extensions><postcode>RM16 3BG</postcode><URL>http://motorwayservices.uk/Thurrock</URL></extensions></wpt><wpt lat="53.133917" lon="-1.332002"><name>Tibshelf</name><extensions><postcode>DE55 5TZ</postcode><URL>http://motorwayservices.uk/Tibshelf</URL></extensions></wpt><wpt lat="53.765349" lon="-2.641079"><name>Tickled_Trout</name><extensions><postcode>PR5 0UJ</postcode><URL>http://motorwayservices.uk/Tickled_Trout</URL></extensions></wpt><wpt lat="50.916808" lon="-3.354939"><name>Tiverton</name><extensions><postcode>EX16 7HD</postcode><URL>http://motorwayservices.uk/Tiverton</URL></extensions></wpt><wpt lat="51.947096" lon="-0.503233"><name>Toddington</name><extensions><postcode>LU5 6HR</postcode><URL>http://motorwayservices.uk/Toddington</URL></extensions></wpt><wpt lat="54.950102" lon="-2.979008"><name>Todhills</name><extensions><postcode>CA6 4HA</postcode><URL>http://motorwayservices.uk/Todhills</URL></extensions></wpt><wpt lat="51.417255" lon="0.361227"><name>Tollgate</name><extensions><postcode>DA11 7NP</postcode><URL>http://motorwayservices.uk/Tollgate</URL></extensions></wpt><wpt lat="52.205946" lon="0.9797"><name>Tot_Hill_(A14)</name><extensions><postcode>IP14 3QQ</postcode><URL>http://motorwayservices.uk/Tot_Hill_(A14)</URL></extensions></wpt><wpt lat="51.34853" lon="-1.342779"><name>Tot_Hill_(A34)</name><extensions><postcode>RG20 9BX</postcode><URL>http://motorwayservices.uk/Tot_Hill_(A34)</URL></extensions></wpt><wpt lat="52.126718" lon="-1.004552"><name>Towcester</name><extensions><postcode>NN12 6TQ</postcode><URL>http://motorwayservices.uk/Towcester</URL></extensions></wpt><wpt lat="50.985032" lon="-2.713989"><name>Townsend</name><extensions><postcode>BA22 8PF</postcode><URL>http://motorwayservices.uk/Townsend</URL></extensions></wpt><wpt lat="50.59441" lon="-4.524064"><name>Trewint</name><extensions><postcode>PL15 7TF</postcode><URL>http://motorwayservices.uk/Trewint</URL></extensions></wpt><wpt lat="52.961567" lon="-1.268038"><name>Trowell</name><extensions><postcode>NG9 3PL</postcode><URL>http://motorwayservices.uk/Trowell</URL></extensions></wpt><wpt lat="51.134975" lon="0.351984"><name>Tunbridge_Wells</name><extensions><postcode>TN12 7HE</postcode><URL>http://motorwayservices.uk/Tunbridge_Wells</URL></extensions></wpt><wpt lat="52.908279" lon="-1.858719"><name>Uttoxeter</name><extensions><postcode>ST14 5AA</postcode><URL>http://motorwayservices.uk/Uttoxeter</URL></extensions></wpt><wpt lat="52.03016" lon="-2.002117"><name>Vale</name><extensions><postcode>WR11 7QP</postcode><URL>http://motorwayservices.uk/Vale</URL></extensions></wpt><wpt lat="51.21786" lon="-2.199957"><name>Warminster</name><extensions><postcode>BA12 7RU</postcode><URL>http://motorwayservices.uk/Warminster</URL></extensions></wpt><wpt lat="52.219735" lon="-1.515692"><name>Warwick</name><extensions><postcode>CV35 0AA</postcode><URL>http://motorwayservices.uk/Warwick</URL></extensions></wpt><wpt lat="54.890285" lon="-1.557512"><name>Washington</name><extensions><postcode>DH3 2SJ</postcode><URL>http://motorwayservices.uk/Washington</URL></extensions></wpt><wpt lat="52.307442" lon="-1.123064"><name>Watford_Gap</name><extensions><postcode>NN6 7UZ</postcode><URL>http://motorwayservices.uk/Watford_Gap</URL></extensions></wpt><wpt lat="51.858779" lon="1.101988"><name>Weeley</name><extensions><postcode>CO16 9AD</postcode><URL>http://motorwayservices.uk/Weeley</URL></extensions></wpt><wpt lat="52.288683" lon="-0.674022"><name>Wellingborough</name><extensions><postcode>NN8 2DU</postcode><URL>http://motorwayservices.uk/Wellingborough</URL></extensions></wpt><wpt lat="53.768157" lon="-0.66144"><name>West_Cave</name><extensions><postcode>HU15 1RZ</postcode><URL>http://motorwayservices.uk/West_Cave</URL></extensions></wpt><wpt lat="50.954982" lon="-1.535655"><name>West_Wellow</name><extensions><postcode>SO51 6GF</postcode><URL>http://motorwayservices.uk/West_Wellow</URL></extensions></wpt><wpt lat="53.947548" lon="-1.368874"><name>Wetherby</name><extensions><postcode>LS22 5GT</postcode><URL>http://motorwayservices.uk/Wetherby</URL></extensions></wpt><wpt lat="51.213772" lon="-1.535821"><name>Weyhill</name><extensions><postcode>SP11 8FH</postcode><URL>http://motorwayservices.uk/Weyhill</URL></extensions></wpt><wpt lat="52.031158" lon="1.148573"><name>Wherstead</name><extensions><postcode>IP2 8NQ</postcode><URL>http://motorwayservices.uk/Wherstead</URL></extensions></wpt><wpt lat="50.719514" lon="-3.852056"><name>Whiddon_Down</name><extensions><postcode>EX20 2QT</postcode><URL>http://motorwayservices.uk/Whiddon_Down</URL></extensions></wpt><wpt lat="52.966978" lon="-2.70533"><name>Whitchurch</name><extensions><postcode>SY13 1JZ</postcode><URL>http://motorwayservices.uk/Whitchurch</URL></extensions></wpt><wpt lat="50.739056" lon="-3.959004"><name>Whitehouse</name><extensions><postcode>EX20 1QJ</postcode><URL>http://motorwayservices.uk/Whitehouse</URL></extensions></wpt><wpt lat="54.946928" lon="-1.515724"><name>Whitemare_Pool</name><extensions><postcode>NE10 8YB</postcode><URL>http://motorwayservices.uk/Whitemare_Pool</URL></extensions></wpt><wpt lat="53.293125" lon="-2.592984"><name>Whitley</name><extensions><postcode>WA4 4EZ</postcode><URL>http://motorwayservices.uk/Whitley</URL></extensions></wpt><wpt lat="52.104085" lon="0.176811"><name>Whittlesford</name><extensions><postcode>CB22 3HD</postcode><URL>http://motorwayservices.uk/Whittlesford</URL></extensions></wpt><wpt lat="52.855343" lon="-1.581075"><name>Willington</name><extensions><postcode>DE65 6GY</postcode><URL>http://motorwayservices.uk/Willington</URL></extensions></wpt><wpt lat="51.101392" lon="-2.185914"><name>Willoughby_Hedge</name><extensions><postcode>BA12 6AQ</postcode><URL>http://motorwayservices.uk/Willoughby_Hedge</URL></extensions></wpt><wpt lat="55.401474" lon="-1.691665"><name>Willowtree</name><extensions><postcode>NE66 2HA</postcode><URL>http://motorwayservices.uk/Willowtree</URL></extensions></wpt><wpt lat="51.115258" lon="-1.254577"><name>Winchester</name><extensions><postcode>SO21 1PP</postcode><URL>http://motorwayservices.uk/Winchester</URL></extensions></wpt><wpt lat="50.640317" lon="-3.562857"><name>Winning_Post</name><extensions><postcode>EX6 7XS</postcode><URL>http://motorwayservices.uk/Winning_Post</URL></extensions></wpt><wpt lat="53.097736" lon="-0.769253"><name>Winthorpe</name><extensions><postcode>NG24 2NY</postcode><URL>http://motorwayservices.uk/Winthorpe</URL></extensions></wpt><wpt lat="52.684773" lon="0.207283"><name>Wisbech</name><extensions><postcode>PE14 7BF</postcode><URL>http://motorwayservices.uk/Wisbech</URL></extensions></wpt><wpt lat="51.293154" lon="-0.489885"><name>Wisley</name><extensions><postcode>GU23 6PT</postcode><URL>http://motorwayservices.uk/Wisley</URL></extensions></wpt><wpt lat="51.777974" lon="-1.492396"><name>Witney</name><extensions><postcode>OX28 4EJ</postcode><URL>http://motorwayservices.uk/Witney</URL></extensions></wpt><wpt lat="52.598401" lon="-0.421717"><name>Wittering</name><extensions><postcode>PE8 6HA</postcode><URL>http://motorwayservices.uk/Wittering</URL></extensions></wpt><wpt lat="53.315191" lon="-1.28137"><name>Woodall</name><extensions><postcode>S26 7XR</postcode><URL>http://motorwayservices.uk/Woodall</URL></extensions></wpt><wpt lat="54.535037" lon="-1.075788"><name>Woodhouse</name><extensions><postcode>TS14 6QU</postcode><URL>http://motorwayservices.uk/Woodhouse</URL></extensions></wpt><wpt lat="51.013302" lon="-3.764034"><name>Woodside</name><extensions><postcode>EX36 3QP</postcode><URL>http://motorwayservices.uk/Woodside</URL></extensions></wpt><wpt lat="53.622277" lon="-1.545422"><name>Woolley_Edge</name><extensions><postcode>WF4 4LQ</postcode><URL>http://motorwayservices.uk/Woolley_Edge</URL></extensions></wpt><wpt lat="51.108451" lon="-0.866188"><name>Woolmer</name><extensions><postcode>GU35 9QF</postcode><URL>http://motorwayservices.uk/Woolmer</URL></extensions></wpt><wpt lat="53.303263" lon="-1.139822"><name>Worksop</name><extensions><postcode>S80 3QD</postcode><URL>http://motorwayservices.uk/Worksop</URL></extensions></wpt><wpt lat="52.145051" lon="0.230827"><name>Worsted</name><extensions><postcode>CB22 3AX</postcode><URL>http://motorwayservices.uk/Worsted</URL></extensions></wpt><wpt lat="52.19456" lon="-0.297943"><name>Wyboston</name><extensions><postcode>MK44 3AA</postcode><URL>http://motorwayservices.uk/Wyboston</URL></extensions></wpt><wpt lat="54.628629" lon="-1.306915"><name>Wynyard_Park</name><extensions><postcode>TS22 5PZ</postcode><URL>http://motorwayservices.uk/Wynyard_Park</URL></extensions></wpt><wpt lat="51.810425" lon="-1.308573"><name>Yarnton</name><extensions><postcode>OX5 1PT</postcode><URL>http://motorwayservices.uk/Yarnton</URL></extensions></wpt><wpt lat="53.4007486" lon="-7.8273165"><name>Athlone</name><extensions><URL>http://motorwayservices.ie/Athlone</URL><eircode>N37 N2T0</eircode></extensions></wpt><wpt lat="52.7584205" lon="-8.408365"><name>Birdhill</name><extensions><URL>http://motorwayservices.ie/Birdhill</URL><eircode>V94 720P</eircode></extensions></wpt><wpt lat="52.8026044" lon="-6.8832978"><name>Carlow</name><extensions><URL>http://motorwayservices.ie/Carlow</URL><eircode>R93 N2X8</eircode></extensions></wpt><wpt lat="52.5090291" lon="-7.8730672"><name>Cashel</name><extensions><URL>http://motorwayservices.ie/Cashel</URL><eircode>E25 RC42</eircode></extensions></wpt><wpt lat="53.9318538" lon="-6.4169479"><name>Castlebellingham</name><extensions><URL>http://motorwayservices.ie/Castlebellingham</URL><eircode>A91 A2WY</eircode></extensions></wpt><wpt lat="53.4112383" lon="-6.8765776"><name>Enfield</name><extensions><URL>http://motorwayservices.ie/Enfield</URL><eircode>A83 NR71</eircode></extensions></wpt><wpt lat="52.1655816" lon="-8.2612881"><name>Fermoy</name><extensions><URL>http://motorwayservices.ie/Fermoy</URL><eircode>P61 RY63</eircode></extensions></wpt><wpt lat="53.2644819" lon="-8.606848"><name>Galway</name><extensions><URL>http://motorwayservices.ie/Galway</URL><eircode>H65 EK28</eircode></extensions></wpt><wpt lat="52.7504172" lon="-6.2028138"><name>Gorey</name><extensions><URL>http://motorwayservices.ie/Gorey</URL><eircode>Y25 V8F8</eircode></extensions></wpt><wpt lat="53.087789" lon="-6.7556429"><name>Kilcullen</name><extensions><URL>http://motorwayservices.ie/Kilcullen</URL><eircode>R56 T251</eircode></extensions></wpt><wpt lat="53.2477264" lon="-6.5958702"><name>Kill</name><extensions><URL>http://motorwayservices.ie/Kill</URL><eircode>W91 VNN3</eircode></extensions></wpt><wpt lat="53.4522016" lon="-7.1077325"><name>Kinnegad</name><extensions><URL>http://motorwayservices.ie/Kinnegad</URL><eircode>N91 N9YR</eircode></extensions></wpt><wpt lat="53.5369965" lon="-6.2156121"><name>Lusk</name><extensions><URL>http://motorwayservices.ie/Lusk</URL><eircode>K45 KD89</eircode></extensions></wpt><wpt lat="52.8665715" lon="-7.4807808"><name>Manor_Stone</name><extensions><URL>http://motorwayservices.ie/Manor_Stone</URL><eircode>R32 X8H7</eircode></extensions></wpt><wpt lat="53.1450646" lon="-7.0130851"><name>Mayfield</name><extensions><URL>http://motorwayservices.ie/Mayfield</URL><eircode>W34 E789</eircode></extensions></wpt><wpt lat="53.0140445" lon="-7.2998537"><name>Midway_Food_Court</name><extensions><URL>http://motorwayservices.ie/Midway_Food_Court</URL><eircode>R32 V09W</eircode></extensions></wpt><wpt lat="52.8845153" lon="-7.9444262"><name>Moneygall</name><extensions><URL>http://motorwayservices.ie/Moneygall</URL><eircode>E53 F342</eircode></extensions></wpt><wpt lat="53.4068466" lon="-6.4137948"><name>Mulhuddart</name><extensions><URL>http://motorwayservices.ie/Mulhuddart</URL><eircode>D15 VK30</eircode></extensions></wpt><wpt lat="52.6801939" lon="-7.0353789"><name>Paulstown</name><extensions><URL>http://motorwayservices.ie/Paulstown</URL><eircode>R95 R2X6</eircode></extensions></wpt><wpt lat="53.0142894" lon="-7.3074749"><name>Portlaoise</name><extensions><URL>http://motorwayservices.ie/Portlaoise</URL><eircode>R32 V97T</eircode></extensions></wpt><wpt lat="53.2784621" lon="-6.4883542"><name>Rathcoole</name><extensions><URL>http://motorwayservices.ie/Rathcoole</URL><eircode>D24 DH00</eircode></extensions></wpt><wpt lat="53.0442765" lon="-6.0904412"><name>Wicklow</name><extensions><URL>http://motorwayservices.ie/Wicklow</URL><eircode>A67 WR12</eircode></extensions></wpt></gpx>